$GPGGA,204017.000,5555.520,N,03731.653,E,1,12,1.0,0.0,M,0.0,M,,*6F
$GPGSA,A,3,01,02,03,04,05,06,07,08,09,10,11,12,1.0,1.0,1.0*30
$GPRMC,204017.000,A,5555.520,N,03731.653,E,000.0,000.0,270318,000.0,W*74
$GPGGA,204018.000,5555.520,N,03731.653,E,1,12,1.0,0.0,M,0.0,M,,*60
$GPGSA,A,3,01,02,03,04,05,06,07,08,09,10,11,12,1.0,1.0,1.0*30
$GPRMC,204018.000,A,5555.520,N,03731.653,E,000.0,000.0,270318,000.0,W*7B
$GPGGA,204019.000,5555.520,N,03731.653,E,1,12,1.0,0.0,M,0.0,M,,*61
$GPGSA,A,3,01,02,03,04,05,06,07,08,09,10,11,12,1.0,1.0,1.0*30
$GPRMC,204019.000,A,5555.520,N,03731.653,E,000.0,000.0,270318,000.0,W*7A
$GPGGA,204020.000,5555.520,N,03731.653,E,1,12,1.0,0.0,M,0.0,M,,*6B
$GPGSA,A,3,01,02,03,04,05,06,07,08,09,10,11,12,1.0,1.0,1.0*30
$GPRMC,204020.000,A,5555.520,N,03731.653,E,000.0,000.0,270318,000.0,W*70
$GPGGA,204021.000,5555.520,N,03731.653,E,1,12,1.0,0.0,M,0.0,M,,*6A
$GPGSA,A,3,01,02,03,04,05,06,07,08,09,10,11,12,1.0,1.0,1.0*30
$GPRMC,204021.000,A,5555.520,N,03731.653,E,000.0,000.0,270318,000.0,W*71
$GPGGA,204022.000,5555.520,N,03731.653,E,1,12,1.0,0.0,M,0.0,M,,*69
$GPGSA,A,3,01,02,03,04,05,06,07,08,09,10,11,12,1.0,1.0,1.0*30
$GPRMC,204022.000,A,5555.520,N,03731.653,E,000.0,000.0,270318,000.0,W*72
$GPGGA,204023.000,5555.520,N,03731.653,E,1,12,1.0,0.0,M,0.0,M,,*68
$GPGSA,A,3,01,02,03,04,05,06,07,08,09,10,11,12,1.0,1.0,1.0*30
$GPRMC,204023.000,A,5555.520,N,03731.653,E,000.0,000.0,270318,000.0,W*73
$GPGGA,204024.000,5555.520,N,03731.653,E,1,12,1.0,0.0,M,0.0,M,,*6F
$GPGSA,A,3,01,02,03,04,05,06,07,08,09,10,11,12,1.0,1.0,1.0*30
$GPRMC,204024.000,A,5555.520,N,03731.653,E,005.4,116.7,270318,000.0,W*74
$GPGGA,204025.000,5555.519,N,03731.655,E,1,12,1.0,0.0,M,0.0,M,,*62
$GPGSA,A,3,01,02,03,04,05,06,07,08,09,10,11,12,1.0,1.0,1.0*30
$GPRMC,204025.000,A,5555.519,N,03731.655,E,003.6,000.0,270318,000.0,W*7C
$GPGGA,204026.000,5555.520,N,03731.655,E,1,12,1.0,0.0,M,0.0,M,,*6B
$GPGSA,A,3,01,02,03,04,05,06,07,08,09,10,11,12,1.0,1.0,1.0*30
$GPRMC,204026.000,A,5555.520,N,03731.655,E,000.0,000.0,270318,000.0,W*70
$GPGGA,204027.000,5555.520,N,03731.655,E,1,12,1.0,0.0,M,0.0,M,,*6A
$GPGSA,A,3,01,02,03,04,05,06,07,08,09,10,11,12,1.0,1.0,1.0*30
$GPRMC,204027.000,A,5555.520,N,03731.655,E,002.0,090.0,270318,000.0,W*7A
$GPGGA,204028.000,5555.520,N,03731.656,E,1,12,1.0,0.0,M,0.0,M,,*66
$GPGSA,A,3,01,02,03,04,05,06,07,08,09,10,11,12,1.0,1.0,1.0*30
$GPRMC,204028.000,A,5555.520,N,03731.656,E,004.1,315.1,270318,000.0,W*7E
$GPGGA,204029.000,5555.521,N,03731.655,E,1,12,1.0,0.0,M,0.0,M,,*65
$GPGSA,A,3,01,02,03,04,05,06,07,08,09,10,11,12,1.0,1.0,1.0*30
$GPRMC,204029.000,A,5555.521,N,03731.655,E,000.0,000.0,270318,000.0,W*7E
$GPGGA,204030.000,5555.521,N,03731.655,E,1,12,1.0,0.0,M,0.0,M,,*6D
$GPGSA,A,3,01,02,03,04,05,06,07,08,09,10,11,12,1.0,1.0,1.0*30
$GPRMC,204030.000,A,5555.521,N,03731.655,E,003.6,000.0,270318,000.0,W*73
$GPGGA,204031.000,5555.522,N,03731.655,E,1,12,1.0,0.0,M,0.0,M,,*6F
$GPGSA,A,3,01,02,03,04,05,06,07,08,09,10,11,12,1.0,1.0,1.0*30
$GPRMC,204031.000,A,5555.522,N,03731.655,E,003.6,000.0,270318,000.0,W*71
$GPGGA,204032.000,5555.523,N,03731.655,E,1,12,1.0,0.0,M,0.0,M,,*6D
$GPGSA,A,3,01,02,03,04,05,06,07,08,09,10,11,12,1.0,1.0,1.0*30
$GPRMC,204032.000,A,5555.523,N,03731.655,E,002.0,270.0,270318,000.0,W*71
$GPGGA,204033.000,5555.523,N,03731.654,E,1,12,1.0,0.0,M,0.0,M,,*6D
$GPGSA,A,3,01,02,03,04,05,06,07,08,09,10,11,12,1.0,1.0,1.0*30
$GPRMC,204033.000,A,5555.523,N,03731.654,E,003.6,000.0,270318,000.0,W*73
$GPGGA,204034.000,5555.524,N,03731.654,E,1,12,1.0,0.0,M,0.0,M,,*6D
$GPGSA,A,3,01,02,03,04,05,06,07,08,09,10,11,12,1.0,1.0,1.0*30
$GPRMC,204034.000,A,5555.524,N,03731.654,E,004.1,315.1,270318,000.0,W*75
$GPGGA,204035.000,5555.525,N,03731.653,E,1,12,1.0,0.0,M,0.0,M,,*6A
$GPGSA,A,3,01,02,03,04,05,06,07,08,09,10,11,12,1.0,1.0,1.0*30
$GPRMC,204035.000,A,5555.525,N,03731.653,E,003.6,000.0,270318,000.0,W*74
$GPGGA,204036.000,5555.526,N,03731.653,E,1,12,1.0,0.0,M,0.0,M,,*6A
$GPGSA,A,3,01,02,03,04,05,06,07,08,09,10,11,12,1.0,1.0,1.0*30
$GPRMC,204036.000,A,5555.526,N,03731.653,E,004.1,315.1,270318,000.0,W*72
$GPGGA,204037.000,5555.527,N,03731.652,E,1,12,1.0,0.0,M,0.0,M,,*6B
$GPGSA,A,3,01,02,03,04,05,06,07,08,09,10,11,12,1.0,1.0,1.0*30
$GPRMC,204037.000,A,5555.527,N,03731.652,E,000.2,000.0,270318,000.0,W*72
$GPGGA,204038.000,5555.527,N,03731.652,E,1,12,1.0,0.0,M,0.0,M,,*64
$GPGSA,A,3,01,02,03,04,05,06,07,08,09,10,11,12,1.0,1.0,1.0*30
$GPRMC,204038.000,A,5555.527,N,03731.652,E,003.6,000.0,270318,000.0,W*7A
$GPGGA,204039.000,5555.528,N,03731.652,E,1,12,1.0,0.0,M,0.0,M,,*6A
$GPGSA,A,3,01,02,03,04,05,06,07,08,09,10,11,12,1.0,1.0,1.0*30
$GPRMC,204039.000,A,5555.528,N,03731.652,E,003.6,000.0,270318,000.0,W*74
$GPGGA,204040.000,5555.529,N,03731.652,E,1,12,1.0,0.0,M,0.0,M,,*65
$GPGSA,A,3,01,02,03,04,05,06,07,08,09,10,11,12,1.0,1.0,1.0*30
$GPRMC,204040.000,A,5555.529,N,03731.652,E,002.0,090.0,270318,000.0,W*75
$GPGGA,204041.000,5555.529,N,03731.653,E,1,12,1.0,0.0,M,0.0,M,,*65
$GPGSA,A,3,01,02,03,04,05,06,07,08,09,10,11,12,1.0,1.0,1.0*30
$GPRMC,204041.000,A,5555.529,N,03731.653,E,004.1,044.9,270318,000.0,W*72
$GPGGA,204042.000,5555.530,N,03731.654,E,1,12,1.0,0.0,M,0.0,M,,*69
$GPGSA,A,3,01,02,03,04,05,06,07,08,09,10,11,12,1.0,1.0,1.0*30
$GPRMC,204042.000,A,5555.530,N,03731.654,E,000.0,000.0,270318,000.0,W*72
$GPGGA,204043.000,5555.530,N,03731.654,E,1,12,1.0,0.0,M,0.0,M,,*68
$GPGSA,A,3,01,02,03,04,05,06,07,08,09,10,11,12,1.0,1.0,1.0*30
$GPRMC,204043.000,A,5555.530,N,03731.654,E,003.6,000.0,270318,000.0,W*76
$GPGGA,204044.000,5555.531,N,03731.654,E,1,12,1.0,0.0,M,0.0,M,,*6E
$GPGSA,A,3,01,02,03,04,05,06,07,08,09,10,11,12,1.0,1.0,1.0*30
$GPRMC,204044.000,A,5555.531,N,03731.654,E,002.0,090.0,270318,000.0,W*7E
$GPGGA,204045.000,5555.531,N,03731.655,E,1,12,1.0,0.0,M,0.0,M,,*6E
$GPGSA,A,3,01,02,03,04,05,06,07,08,09,10,11,12,1.0,1.0,1.0*30
$GPRMC,204045.000,A,5555.531,N,03731.655,E,003.6,000.0,270318,000.0,W*70
$GPGGA,204046.000,5555.532,N,03731.655,E,1,12,1.0,0.0,M,0.0,M,,*6E
$GPGSA,A,3,01,02,03,04,05,06,07,08,09,10,11,12,1.0,1.0,1.0*30
$GPRMC,204046.000,A,5555.532,N,03731.655,E,000.0,000.0,270318,000.0,W*75
$GPGGA,204047.000,5555.532,N,03731.655,E,1,12,1.0,0.0,M,0.0,M,,*6F
$GPGSA,A,3,01,02,03,04,05,06,07,08,09,10,11,12,1.0,1.0,1.0*30
$GPRMC,204047.000,A,5555.532,N,03731.655,E,003.6,000.0,270318,000.0,W*71
$GPGGA,204048.000,5555.533,N,03731.655,E,1,12,1.0,0.0,M,0.0,M,,*61
$GPGSA,A,3,01,02,03,04,05,06,07,08,09,10,11,12,1.0,1.0,1.0*30
$GPRMC,204048.000,A,5555.533,N,03731.655,E,000.0,000.0,270318,000.0,W*7A
$GPGGA,204049.000,5555.533,N,03731.655,E,1,12,1.0,0.0,M,0.0,M,,*60
$GPGSA,A,3,01,02,03,04,05,06,07,08,09,10,11,12,1.0,1.0,1.0*30
$GPRMC,204049.000,A,5555.533,N,03731.655,E,004.1,315.2,270318,000.0,W*7B
$GPGGA,204050.000,5555.534,N,03731.654,E,1,12,1.0,0.0,M,0.0,M,,*6E
$GPGSA,A,3,01,02,03,04,05,06,07,08,09,10,11,12,1.0,1.0,1.0*30
$GPRMC,204050.000,A,5555.534,N,03731.654,E,003.6,000.0,270318,000.0,W*70
$GPGGA,204051.000,5555.535,N,03731.654,E,1,12,1.0,0.0,M,0.0,M,,*6E
$GPGSA,A,3,01,02,03,04,05,06,07,08,09,10,11,12,1.0,1.0,1.0*30
$GPRMC,204051.000,A,5555.535,N,03731.654,E,000.0,000.0,270318,000.0,W*75
$GPGGA,204052.000,5555.535,N,03731.654,E,1,12,1.0,0.0,M,0.0,M,,*6D
$GPGSA,A,3,01,02,03,04,05,06,07,08,09,10,11,12,1.0,1.0,1.0*30
$GPRMC,204052.000,A,5555.535,N,03731.654,E,003.6,000.0,270318,000.0,W*73
$GPGGA,204053.000,5555.536,N,03731.654,E,1,12,1.0,0.0,M,0.0,M,,*6F
$GPGSA,A,3,01,02,03,04,05,06,07,08,09,10,11,12,1.0,1.0,1.0*30
$GPRMC,204053.000,A,5555.536,N,03731.654,E,002.0,270.0,270318,000.0,W*73
$GPGGA,204054.000,5555.536,N,03731.653,E,1,12,1.0,0.0,M,0.0,M,,*6F
$GPGSA,A,3,01,02,03,04,05,06,07,08,09,10,11,12,1.0,1.0,1.0*30
$GPRMC,204054.000,A,5555.536,N,03731.653,E,003.6,000.0,270318,000.0,W*71
$GPGGA,204055.000,5555.537,N,03731.653,E,1,12,1.0,0.0,M,0.0,M,,*6F
$GPGSA,A,3,01,02,03,04,05,06,07,08,09,10,11,12,1.0,1.0,1.0*30
$GPRMC,204055.000,A,5555.537,N,03731.653,E,002.0,270.0,270318,000.0,W*73
$GPGGA,204056.000,5555.537,N,03731.652,E,1,12,1.0,0.0,M,0.0,M,,*6D
$GPGSA,A,3,01,02,03,04,05,06,07,08,09,10,11,12,1.0,1.0,1.0*30
$GPRMC,204056.000,A,5555.537,N,03731.652,E,004.1,315.1,270318,000.0,W*75
$GPGGA,204057.000,5555.538,N,03731.651,E,1,12,1.0,0.0,M,0.0,M,,*60
$GPGSA,A,3,01,02,03,04,05,06,07,08,09,10,11,12,1.0,1.0,1.0*30
$GPRMC,204057.000,A,5555.538,N,03731.651,E,004.1,315.1,270318,000.0,W*78
$GPGGA,204058.000,5555.539,N,03731.650,E,1,12,1.0,0.0,M,0.0,M,,*6F
$GPGSA,A,3,01,02,03,04,05,06,07,08,09,10,11,12,1.0,1.0,1.0*30
$GPRMC,204058.000,A,5555.539,N,03731.650,E,000.0,000.0,270318,000.0,W*74
$GPGGA,204059.000,5555.539,N,03731.650,E,1,12,1.0,0.0,M,0.0,M,,*6E
$GPGSA,A,3,01,02,03,04,05,06,07,08,09,10,11,12,1.0,1.0,1.0*30
$GPRMC,204059.000,A,5555.539,N,03731.650,E,003.6,180.0,270318,000.0,W*79
$GPGGA,204100.000,5555.538,N,03731.650,E,1,12,1.0,0.0,M,0.0,M,,*62
$GPGSA,A,3,01,02,03,04,05,06,07,08,09,10,11,12,1.0,1.0,1.0*30
$GPRMC,204100.000,A,5555.538,N,03731.650,E,002.0,270.0,270318,000.0,W*7E
$GPGGA,204101.000,5555.538,N,03731.649,E,1,12,1.0,0.0,M,0.0,M,,*6B
$GPGSA,A,3,01,02,03,04,05,06,07,08,09,10,11,12,1.0,1.0,1.0*30
$GPRMC,204101.000,A,5555.538,N,03731.649,E,000.2,000.0,270318,000.0,W*72
$GPGGA,204102.000,5555.538,N,03731.649,E,1,12,1.0,0.0,M,0.0,M,,*68
$GPGSA,A,3,01,02,03,04,05,06,07,08,09,10,11,12,1.0,1.0,1.0*30
$GPRMC,204102.000,A,5555.538,N,03731.649,E,004.1,224.9,270318,000.0,W*7B
$GPGGA,204103.000,5555.537,N,03731.648,E,1,12,1.0,0.0,M,0.0,M,,*67
$GPGSA,A,3,01,02,03,04,05,06,07,08,09,10,11,12,1.0,1.0,1.0*30
$GPRMC,204103.000,A,5555.537,N,03731.648,E,000.0,000.0,270318,000.0,W*7C
$GPGGA,204104.000,5555.537,N,03731.648,E,1,12,1.0,0.0,M,0.0,M,,*60
$GPGSA,A,3,01,02,03,04,05,06,07,08,09,10,11,12,1.0,1.0,1.0*30
$GPRMC,204104.000,A,5555.537,N,03731.648,E,000.0,000.0,270318,000.0,W*7B
$GPGGA,204105.000,5555.537,N,03731.648,E,1,12,1.0,0.0,M,0.0,M,,*61
$GPGSA,A,3,01,02,03,04,05,06,07,08,09,10,11,12,1.0,1.0,1.0*30
$GPRMC,204105.000,A,5555.537,N,03731.648,E,000.0,000.0,270318,000.0,W*7A
$GPGGA,204106.000,5555.537,N,03731.648,E,1,12,1.0,0.0,M,0.0,M,,*62
$GPGSA,A,3,01,02,03,04,05,06,07,08,09,10,11,12,1.0,1.0,1.0*30
$GPRMC,204106.000,A,5555.537,N,03731.648,E,000.0,000.0,270318,000.0,W*79
$GPGGA,204107.000,5555.537,N,03731.648,E,1,12,1.0,0.0,M,0.0,M,,*63
$GPGSA,A,3,01,02,03,04,05,06,07,08,09,10,11,12,1.0,1.0,1.0*30
$GPRMC,204107.000,A,5555.537,N,03731.648,E,000.0,000.0,270318,000.0,W*78
$GPGGA,204108.000,5555.537,N,03731.648,E,1,12,1.0,0.0,M,0.0,M,,*6C
$GPGSA,A,3,01,02,03,04,05,06,07,08,09,10,11,12,1.0,1.0,1.0*30
$GPRMC,204108.000,A,5555.537,N,03731.648,E,000.0,000.0,270318,000.0,W*77
$GPGGA,204109.000,5555.537,N,03731.648,E,1,12,1.0,0.0,M,0.0,M,,*6D
$GPGSA,A,3,01,02,03,04,05,06,07,08,09,10,11,12,1.0,1.0,1.0*30
$GPRMC,204109.000,A,5555.537,N,03731.648,E,000.0,000.0,270318,000.0,W*76
$GPGGA,204110.000,5555.537,N,03731.648,E,1,12,1.0,0.0,M,0.0,M,,*65
$GPGSA,A,3,01,02,03,04,05,06,07,08,09,10,11,12,1.0,1.0,1.0*30
$GPRMC,204110.000,A,5555.537,N,03731.648,E,000.0,000.0,270318,000.0,W*7E
$GPGGA,204111.000,5555.537,N,03731.648,E,1,12,1.0,0.0,M,0.0,M,,*64
$GPGSA,A,3,01,02,03,04,05,06,07,08,09,10,11,12,1.0,1.0,1.0*30
$GPRMC,204111.000,A,5555.537,N,03731.648,E,000.0,000.0,270318,000.0,W*7F
$GPGGA,204112.000,5555.537,N,03731.648,E,1,12,1.0,0.0,M,0.0,M,,*67
$GPGSA,A,3,01,02,03,04,05,06,07,08,09,10,11,12,1.0,1.0,1.0*30
$GPRMC,204112.000,A,5555.537,N,03731.648,E,000.0,000.0,270318,000.0,W*7C
$GPGGA,204113.000,5555.537,N,03731.648,E,1,12,1.0,0.0,M,0.0,M,,*66
$GPGSA,A,3,01,02,03,04,05,06,07,08,09,10,11,12,1.0,1.0,1.0*30
$GPRMC,204113.000,A,5555.537,N,03731.648,E,000.0,000.0,270318,000.0,W*7D
$GPGGA,204114.000,5555.537,N,03731.648,E,1,12,1.0,0.0,M,0.0,M,,*61
$GPGSA,A,3,01,02,03,04,05,06,07,08,09,10,11,12,1.0,1.0,1.0*30
$GPRMC,204114.000,A,5555.537,N,03731.648,E,000.0,000.0,270318,000.0,W*7A
$GPGGA,204115.000,5555.537,N,03731.648,E,1,12,1.0,0.0,M,0.0,M,,*60
$GPGSA,A,3,01,02,03,04,05,06,07,08,09,10,11,12,1.0,1.0,1.0*30
$GPRMC,204115.000,A,5555.537,N,03731.648,E,000.0,000.0,270318,000.0,W*7B
$GPGGA,204116.000,5555.537,N,03731.648,E,1,12,1.0,0.0,M,0.0,M,,*63
$GPGSA,A,3,01,02,03,04,05,06,07,08,09,10,11,12,1.0,1.0,1.0*30
$GPRMC,204116.000,A,5555.537,N,03731.648,E,000.0,000.0,270318,000.0,W*78
$GPGGA,204117.000,5555.537,N,03731.648,E,1,12,1.0,0.0,M,0.0,M,,*62
$GPGSA,A,3,01,02,03,04,05,06,07,08,09,10,11,12,1.0,1.0,1.0*30
$GPRMC,204117.000,A,5555.537,N,03731.648,E,000.0,000.0,270318,000.0,W*79
$GPGGA,204118.000,5555.537,N,03731.648,E,1,12,1.0,0.0,M,0.0,M,,*6D
$GPGSA,A,3,01,02,03,04,05,06,07,08,09,10,11,12,1.0,1.0,1.0*30
$GPRMC,204118.000,A,5555.537,N,03731.648,E,004.1,224.9,270318,000.0,W*7E
$GPGGA,204119.000,5555.536,N,03731.647,E,1,12,1.0,0.0,M,0.0,M,,*62
$GPGSA,A,3,01,02,03,04,05,06,07,08,09,10,11,12,1.0,1.0,1.0*30
$GPRMC,204119.000,A,5555.536,N,03731.647,E,000.0,000.0,270318,000.0,W*79
$GPGGA,204120.000,5555.536,N,03731.647,E,1,12,1.0,0.0,M,0.0,M,,*68
$GPGSA,A,3,01,02,03,04,05,06,07,08,09,10,11,12,1.0,1.0,1.0*30
$GPRMC,204120.000,A,5555.536,N,03731.647,E,002.0,270.0,270318,000.0,W*74
$GPGGA,204121.000,5555.536,N,03731.646,E,1,12,1.0,0.0,M,0.0,M,,*68
$GPGSA,A,3,01,02,03,04,05,06,07,08,09,10,11,12,1.0,1.0,1.0*30
$GPRMC,204121.000,A,5555.536,N,03731.646,E,004.0,270.0,270318,000.0,W*72
$GPGGA,204122.000,5555.536,N,03731.644,E,1,12,1.0,0.0,M,0.0,M,,*69
$GPGSA,A,3,01,02,03,04,05,06,07,08,09,10,11,12,1.0,1.0,1.0*30
$GPRMC,204122.000,A,5555.536,N,03731.644,E,004.0,270.0,270318,000.0,W*73
$GPGGA,204123.000,5555.536,N,03731.642,E,1,12,1.0,0.0,M,0.0,M,,*6E
$GPGSA,A,3,01,02,03,04,05,06,07,08,09,10,11,12,1.0,1.0,1.0*30
$GPRMC,204123.000,A,5555.536,N,03731.642,E,005.4,243.3,270318,000.0,W*72
$GPGGA,204124.000,5555.535,N,03731.640,E,1,12,1.0,0.0,M,0.0,M,,*68
$GPGSA,A,3,01,02,03,04,05,06,07,08,09,10,11,12,1.0,1.0,1.0*30
$GPRMC,204124.000,A,5555.535,N,03731.640,E,002.0,270.0,270318,000.0,W*74
$GPGGA,204125.000,5555.535,N,03731.639,E,1,12,1.0,0.0,M,0.0,M,,*67
$GPGSA,A,3,01,02,03,04,05,06,07,08,09,10,11,12,1.0,1.0,1.0*30
$GPRMC,204125.000,A,5555.535,N,03731.639,E,004.0,270.0,270318,000.0,W*7D
$GPGGA,204126.000,5555.535,N,03731.637,E,1,12,1.0,0.0,M,0.0,M,,*6A
$GPGSA,A,3,01,02,03,04,05,06,07,08,09,10,11,12,1.0,1.0,1.0*30
$GPRMC,204126.000,A,5555.535,N,03731.637,E,002.0,270.0,270318,000.0,W*76
$GPGGA,204127.000,5555.535,N,03731.636,E,1,12,1.0,0.0,M,0.0,M,,*6A
$GPGSA,A,3,01,02,03,04,05,06,07,08,09,10,11,12,1.0,1.0,1.0*30
$GPRMC,204127.000,A,5555.535,N,03731.636,E,004.0,270.0,270318,000.0,W*70
$GPGGA,204128.000,5555.535,N,03731.634,E,1,12,1.0,0.0,M,0.0,M,,*67
$GPGSA,A,3,01,02,03,04,05,06,07,08,09,10,11,12,1.0,1.0,1.0*30
$GPRMC,204128.000,A,5555.535,N,03731.634,E,004.1,224.9,270318,000.0,W*74
$GPGGA,204129.000,5555.534,N,03731.633,E,1,12,1.0,0.0,M,0.0,M,,*60
$GPGSA,A,3,01,02,03,04,05,06,07,08,09,10,11,12,1.0,1.0,1.0*30
$GPRMC,204129.000,A,5555.534,N,03731.633,E,004.0,270.0,270318,000.0,W*7A
$GPGGA,204130.000,5555.534,N,03731.631,E,1,12,1.0,0.0,M,0.0,M,,*6A
$GPGSA,A,3,01,02,03,04,05,06,07,08,09,10,11,12,1.0,1.0,1.0*30
$GPRMC,204130.000,A,5555.534,N,03731.631,E,003.6,180.0,270318,000.0,W*7D
$GPGGA,204131.000,5555.533,N,03731.631,E,1,12,1.0,0.0,M,0.0,M,,*6C
$GPGSA,A,3,01,02,03,04,05,06,07,08,09,10,11,12,1.0,1.0,1.0*30
$GPRMC,204131.000,A,5555.533,N,03731.631,E,004.1,224.8,270318,000.0,W*7E
$GPGGA,204132.000,5555.532,N,03731.630,E,1,12,1.0,0.0,M,0.0,M,,*6F
$GPGSA,A,3,01,02,03,04,05,06,07,08,09,10,11,12,1.0,1.0,1.0*30
$GPRMC,204132.000,A,5555.532,N,03731.630,E,003.6,180.0,270318,000.0,W*78
$GPGGA,204133.000,5555.531,N,03731.630,E,1,12,1.0,0.0,M,0.0,M,,*6D
$GPGSA,A,3,01,02,03,04,05,06,07,08,09,10,11,12,1.0,1.0,1.0*30
$GPRMC,204133.000,A,5555.531,N,03731.630,E,002.0,090.0,270318,000.0,W*7D
$GPGGA,204134.000,5555.531,N,03731.631,E,1,12,1.0,0.0,M,0.0,M,,*6B
$GPGSA,A,3,01,02,03,04,05,06,07,08,09,10,11,12,1.0,1.0,1.0*30
$GPRMC,204134.000,A,5555.531,N,03731.631,E,003.6,180.0,270318,000.0,W*7C
$GPGGA,204135.000,5555.530,N,03731.631,E,1,12,1.0,0.0,M,0.0,M,,*6B
$GPGSA,A,3,01,02,03,04,05,06,07,08,09,10,11,12,1.0,1.0,1.0*30
$GPRMC,204135.000,A,5555.530,N,03731.631,E,002.0,090.0,270318,000.0,W*7B
$GPGGA,204136.000,5555.530,N,03731.632,E,1,12,1.0,0.0,M,0.0,M,,*6B
$GPGSA,A,3,01,02,03,04,05,06,07,08,09,10,11,12,1.0,1.0,1.0*30
$GPRMC,204136.000,A,5555.530,N,03731.632,E,000.0,000.0,270318,000.0,W*70
$GPGGA,204137.000,5555.530,N,03731.632,E,1,12,1.0,0.0,M,0.0,M,,*6A
$GPGSA,A,3,01,02,03,04,05,06,07,08,09,10,11,12,1.0,1.0,1.0*30
$GPRMC,204137.000,A,5555.530,N,03731.632,E,000.0,000.0,270318,000.0,W*71
$GPGGA,204138.000,5555.530,N,03731.632,E,1,12,1.0,0.0,M,0.0,M,,*65
$GPGSA,A,3,01,02,03,04,05,06,07,08,09,10,11,12,1.0,1.0,1.0*30
$GPRMC,204138.000,A,5555.530,N,03731.632,E,003.6,180.0,270318,000.0,W*72
$GPGGA,204139.000,5555.529,N,03731.632,E,1,12,1.0,0.0,M,0.0,M,,*6C
$GPGSA,A,3,01,02,03,04,05,06,07,08,09,10,11,12,1.0,1.0,1.0*30
$GPRMC,204139.000,A,5555.529,N,03731.632,E,000.0,000.0,270318,000.0,W*77
$GPGGA,204140.000,5555.529,N,03731.632,E,1,12,1.0,0.0,M,0.0,M,,*62
$GPGSA,A,3,01,02,03,04,05,06,07,08,09,10,11,12,1.0,1.0,1.0*30
$GPRMC,204140.000,A,5555.529,N,03731.632,E,002.0,270.0,270318,000.0,W*7E
$GPGGA,204141.000,5555.529,N,03731.631,E,1,12,1.0,0.0,M,0.0,M,,*60
$GPGSA,A,3,01,02,03,04,05,06,07,08,09,10,11,12,1.0,1.0,1.0*30
$GPRMC,204141.000,A,5555.529,N,03731.631,E,004.1,224.9,270318,000.0,W*73
$GPGGA,204142.000,5555.528,N,03731.630,E,1,12,1.0,0.0,M,0.0,M,,*63
$GPGSA,A,3,01,02,03,04,05,06,07,08,09,10,11,12,1.0,1.0,1.0*30
$GPRMC,204142.000,A,5555.528,N,03731.630,E,002.0,270.0,270318,000.0,W*7F
$GPGGA,204143.000,5555.528,N,03731.629,E,1,12,1.0,0.0,M,0.0,M,,*6A
$GPGSA,A,3,01,02,03,04,05,06,07,08,09,10,11,12,1.0,1.0,1.0*30
$GPRMC,204143.000,A,5555.528,N,03731.629,E,004.1,224.9,270318,000.0,W*79
$GPGGA,204144.000,5555.527,N,03731.628,E,1,12,1.0,0.0,M,0.0,M,,*63
$GPGSA,A,3,01,02,03,04,05,06,07,08,09,10,11,12,1.0,1.0,1.0*30
$GPRMC,204144.000,A,5555.527,N,03731.628,E,002.0,270.0,270318,000.0,W*7F
$GPGGA,204145.000,5555.527,N,03731.627,E,1,12,1.0,0.0,M,0.0,M,,*6D
$GPGSA,A,3,01,02,03,04,05,06,07,08,09,10,11,12,1.0,1.0,1.0*30
$GPRMC,204145.000,A,5555.527,N,03731.627,E,002.0,270.0,270318,000.0,W*71
$GPGGA,204146.000,5555.527,N,03731.626,E,1,12,1.0,0.0,M,0.0,M,,*6F
$GPGSA,A,3,01,02,03,04,05,06,07,08,09,10,11,12,1.0,1.0,1.0*30
$GPRMC,204146.000,A,5555.527,N,03731.626,E,002.0,270.0,270318,000.0,W*73
$GPGGA,204147.000,5555.527,N,03731.625,E,1,12,1.0,0.0,M,0.0,M,,*6D
$GPGSA,A,3,01,02,03,04,05,06,07,08,09,10,11,12,1.0,1.0,1.0*30
$GPRMC,204147.000,A,5555.527,N,03731.625,E,002.0,270.0,270318,000.0,W*71
$GPGGA,204148.000,5555.527,N,03731.624,E,1,12,1.0,0.0,M,0.0,M,,*63
$GPGSA,A,3,01,02,03,04,05,06,07,08,09,10,11,12,1.0,1.0,1.0*30
$GPRMC,204148.000,A,5555.527,N,03731.624,E,002.0,270.0,270318,000.0,W*7F
$GPGGA,204149.000,5555.527,N,03731.623,E,1,12,1.0,0.0,M,0.0,M,,*65
$GPGSA,A,3,01,02,03,04,05,06,07,08,09,10,11,12,1.0,1.0,1.0*30
$GPRMC,204149.000,A,5555.527,N,03731.623,E,004.1,315.1,270318,000.0,W*7D
$GPGGA,204150.000,5555.528,N,03731.622,E,1,12,1.0,0.0,M,0.0,M,,*63
$GPGSA,A,3,01,02,03,04,05,06,07,08,09,10,11,12,1.0,1.0,1.0*30
$GPRMC,204150.000,A,5555.528,N,03731.622,E,004.1,315.1,270318,000.0,W*7B
$GPGGA,204151.000,5555.529,N,03731.621,E,1,12,1.0,0.0,M,0.0,M,,*60
$GPGSA,A,3,01,02,03,04,05,06,07,08,09,10,11,12,1.0,1.0,1.0*30
$GPRMC,204151.000,A,5555.529,N,03731.621,E,000.0,000.0,270318,000.0,W*7B
$GPGGA,204152.000,5555.529,N,03731.621,E,1,12,1.0,0.0,M,0.0,M,,*63
$GPGSA,A,3,01,02,03,04,05,06,07,08,09,10,11,12,1.0,1.0,1.0*30
$GPRMC,204152.000,A,5555.529,N,03731.621,E,003.6,000.0,270318,000.0,W*7D
$GPGGA,204153.000,5555.530,N,03731.621,E,1,12,1.0,0.0,M,0.0,M,,*6A
$GPGSA,A,3,01,02,03,04,05,06,07,08,09,10,11,12,1.0,1.0,1.0*30
$GPRMC,204153.000,A,5555.530,N,03731.621,E,003.6,000.0,270318,000.0,W*74
$GPGGA,204154.000,5555.531,N,03731.621,E,1,12,1.0,0.0,M,0.0,M,,*6C
$GPGSA,A,3,01,02,03,04,05,06,07,08,09,10,11,12,1.0,1.0,1.0*30
$GPRMC,204154.000,A,5555.531,N,03731.621,E,004.1,315.1,270318,000.0,W*74
$GPGGA,204155.000,5555.532,N,03731.620,E,1,12,1.0,0.0,M,0.0,M,,*6F
$GPGSA,A,3,01,02,03,04,05,06,07,08,09,10,11,12,1.0,1.0,1.0*30
$GPRMC,204155.000,A,5555.532,N,03731.620,E,003.6,000.0,270318,000.0,W*71
$GPGGA,204156.000,5555.533,N,03731.620,E,1,12,1.0,0.0,M,0.0,M,,*6D
$GPGSA,A,3,01,02,03,04,05,06,07,08,09,10,11,12,1.0,1.0,1.0*30
$GPRMC,204156.000,A,5555.533,N,03731.620,E,003.6,000.0,270318,000.0,W*73
$GPGGA,204157.000,5555.534,N,03731.620,E,1,12,1.0,0.0,M,0.0,M,,*6B
$GPGSA,A,3,01,02,03,04,05,06,07,08,09,10,11,12,1.0,1.0,1.0*30
$GPRMC,204157.000,A,5555.534,N,03731.620,E,004.1,315.1,270318,000.0,W*73
$GPGGA,204158.000,5555.535,N,03731.619,E,1,12,1.0,0.0,M,0.0,M,,*6F
$GPGSA,A,3,01,02,03,04,05,06,07,08,09,10,11,12,1.0,1.0,1.0*30
$GPRMC,204158.000,A,5555.535,N,03731.619,E,003.6,000.0,270318,000.0,W*71
$GPGGA,204159.000,5555.536,N,03731.619,E,1,12,1.0,0.0,M,0.0,M,,*6D
$GPGSA,A,3,01,02,03,04,05,06,07,08,09,10,11,12,1.0,1.0,1.0*30
$GPRMC,204159.000,A,5555.536,N,03731.619,E,004.1,315.2,270318,000.0,W*76
$GPGGA,204200.000,5555.537,N,03731.618,E,1,12,1.0,0.0,M,0.0,M,,*62
$GPGSA,A,3,01,02,03,04,05,06,07,08,09,10,11,12,1.0,1.0,1.0*30
$GPRMC,204200.000,A,5555.537,N,03731.618,E,003.6,000.0,270318,000.0,W*7C
$GPGGA,204201.000,5555.538,N,03731.618,E,1,12,1.0,0.0,M,0.0,M,,*6C
$GPGSA,A,3,01,02,03,04,05,06,07,08,09,10,11,12,1.0,1.0,1.0*30
$GPRMC,204201.000,A,5555.538,N,03731.618,E,003.6,000.0,270318,000.0,W*72
$GPGGA,204202.000,5555.539,N,03731.618,E,1,12,1.0,0.0,M,0.0,M,,*6E
$GPGSA,A,3,01,02,03,04,05,06,07,08,09,10,11,12,1.0,1.0,1.0*30
$GPRMC,204202.000,A,5555.539,N,03731.618,E,004.1,315.1,270318,000.0,W*76
$GPGGA,204203.000,5555.540,N,03731.617,E,1,12,1.0,0.0,M,0.0,M,,*6E
$GPGSA,A,3,01,02,03,04,05,06,07,08,09,10,11,12,1.0,1.0,1.0*30
$GPRMC,204203.000,A,5555.540,N,03731.617,E,003.6,000.0,270318,000.0,W*70
$GPGGA,204204.000,5555.541,N,03731.617,E,1,12,1.0,0.0,M,0.0,M,,*68
$GPGSA,A,3,01,02,03,04,05,06,07,08,09,10,11,12,1.0,1.0,1.0*30
$GPRMC,204204.000,A,5555.541,N,03731.617,E,004.1,315.1,270318,000.0,W*70
$GPGGA,204205.000,5555.542,N,03731.616,E,1,12,1.0,0.0,M,0.0,M,,*6B
$GPGSA,A,3,01,02,03,04,05,06,07,08,09,10,11,12,1.0,1.0,1.0*30
$GPRMC,204205.000,A,5555.542,N,03731.616,E,000.0,000.0,270318,000.0,W*70
$GPGGA,204206.000,5555.542,N,03731.616,E,1,12,1.0,0.0,M,0.0,M,,*68
$GPGSA,A,3,01,02,03,04,05,06,07,08,09,10,11,12,1.0,1.0,1.0*30
$GPRMC,204206.000,A,5555.542,N,03731.616,E,007.5,333.6,270318,000.0,W*74
$GPGGA,204207.000,5555.544,N,03731.615,E,1,12,1.0,0.0,M,0.0,M,,*6C
$GPGSA,A,3,01,02,03,04,05,06,07,08,09,10,11,12,1.0,1.0,1.0*30
$GPRMC,204207.000,A,5555.544,N,03731.615,E,004.1,315.1,270318,000.0,W*74
$GPGGA,204208.000,5555.545,N,03731.614,E,1,12,1.0,0.0,M,0.0,M,,*63
$GPGSA,A,3,01,02,03,04,05,06,07,08,09,10,11,12,1.0,1.0,1.0*30
$GPRMC,204208.000,A,5555.545,N,03731.614,E,003.6,000.0,270318,000.0,W*7D
$GPGGA,204209.000,5555.546,N,03731.614,E,1,12,1.0,0.0,M,0.0,M,,*61
$GPGSA,A,3,01,02,03,04,05,06,07,08,09,10,11,12,1.0,1.0,1.0*30
$GPRMC,204209.000,A,5555.546,N,03731.614,E,007.5,333.5,270318,000.0,W*7E
$GPGGA,204210.000,5555.548,N,03731.613,E,1,12,1.0,0.0,M,0.0,M,,*60
$GPGSA,A,3,01,02,03,04,05,06,07,08,09,10,11,12,1.0,1.0,1.0*30
$GPRMC,204210.000,A,5555.548,N,03731.613,E,004.0,270.0,270318,000.0,W*7A
$GPGGA,204211.000,5555.548,N,03731.611,E,1,12,1.0,0.0,M,0.0,M,,*63
$GPGSA,A,3,01,02,03,04,05,06,07,08,09,10,11,12,1.0,1.0,1.0*30
$GPRMC,204211.000,A,5555.548,N,03731.611,E,004.1,315.1,270318,000.0,W*7B
$GPGGA,204212.000,5555.549,N,03731.610,E,1,12,1.0,0.0,M,0.0,M,,*60
$GPGSA,A,3,01,02,03,04,05,06,07,08,09,10,11,12,1.0,1.0,1.0*30
$GPRMC,204212.000,A,5555.549,N,03731.610,E,004.1,315.1,270318,000.0,W*78
$GPGGA,204213.000,5555.550,N,03731.609,E,1,12,1.0,0.0,M,0.0,M,,*61
$GPGSA,A,3,01,02,03,04,05,06,07,08,09,10,11,12,1.0,1.0,1.0*30
$GPRMC,204213.000,A,5555.550,N,03731.609,E,002.0,270.0,270318,000.0,W*7D
$GPGGA,204214.000,5555.550,N,03731.608,E,1,12,1.0,0.0,M,0.0,M,,*67
$GPGSA,A,3,01,02,03,04,05,06,07,08,09,10,11,12,1.0,1.0,1.0*30
$GPRMC,204214.000,A,5555.550,N,03731.608,E,003.6,000.0,270318,000.0,W*79
$GPGGA,204215.000,5555.551,N,03731.608,E,1,12,1.0,0.0,M,0.0,M,,*67
$GPGSA,A,3,01,02,03,04,05,06,07,08,09,10,11,12,1.0,1.0,1.0*30
$GPRMC,204215.000,A,5555.551,N,03731.608,E,002.0,270.0,270318,000.0,W*7B
$GPGGA,204216.000,5555.551,N,03731.607,E,1,12,1.0,0.0,M,0.0,M,,*6B
$GPGSA,A,3,01,02,03,04,05,06,07,08,09,10,11,12,1.0,1.0,1.0*30
$GPRMC,204216.000,A,5555.551,N,03731.607,E,004.1,315.2,270318,000.0,W*70
$GPGGA,204217.000,5555.552,N,03731.606,E,1,12,1.0,0.0,M,0.0,M,,*68
$GPGSA,A,3,01,02,03,04,05,06,07,08,09,10,11,12,1.0,1.0,1.0*30
$GPRMC,204217.000,A,5555.552,N,03731.606,E,002.0,270.0,270318,000.0,W*74
$GPGGA,204218.000,5555.552,N,03731.605,E,1,12,1.0,0.0,M,0.0,M,,*64
$GPGSA,A,3,01,02,03,04,05,06,07,08,09,10,11,12,1.0,1.0,1.0*30
$GPRMC,204218.000,A,5555.552,N,03731.605,E,004.1,315.1,270318,000.0,W*7C
$GPGGA,204219.000,5555.553,N,03731.604,E,1,12,1.0,0.0,M,0.0,M,,*65
$GPGSA,A,3,01,02,03,04,05,06,07,08,09,10,11,12,1.0,1.0,1.0*30
$GPRMC,204219.000,A,5555.553,N,03731.604,E,004.1,315.2,270318,000.0,W*7E
$GPGGA,204220.000,5555.554,N,03731.603,E,1,12,1.0,0.0,M,0.0,M,,*6F
$GPGSA,A,3,01,02,03,04,05,06,07,08,09,10,11,12,1.0,1.0,1.0*30
$GPRMC,204220.000,A,5555.554,N,03731.603,E,004.0,270.0,270318,000.0,W*75
$GPGGA,204221.000,5555.554,N,03731.601,E,1,12,1.0,0.0,M,0.0,M,,*6C
$GPGSA,A,3,01,02,03,04,05,06,07,08,09,10,11,12,1.0,1.0,1.0*30
$GPRMC,204221.000,A,5555.554,N,03731.601,E,004.1,315.2,270318,000.0,W*77
$GPGGA,204222.000,5555.555,N,03731.600,E,1,12,1.0,0.0,M,0.0,M,,*6F
$GPGSA,A,3,01,02,03,04,05,06,07,08,09,10,11,12,1.0,1.0,1.0*30
$GPRMC,204222.000,A,5555.555,N,03731.600,E,002.0,270.0,270318,000.0,W*73
$GPGGA,204223.000,5555.555,N,03731.599,E,1,12,1.0,0.0,M,0.0,M,,*6D
$GPGSA,A,3,01,02,03,04,05,06,07,08,09,10,11,12,1.0,1.0,1.0*30
$GPRMC,204223.000,A,5555.555,N,03731.599,E,003.6,000.0,270318,000.0,W*73
$GPGGA,204224.000,5555.556,N,03731.599,E,1,12,1.0,0.0,M,0.0,M,,*69
$GPGSA,A,3,01,02,03,04,05,06,07,08,09,10,11,12,1.0,1.0,1.0*30
$GPRMC,204224.000,A,5555.556,N,03731.599,E,004.1,315.1,270318,000.0,W*71
$GPGGA,204225.000,5555.557,N,03731.598,E,1,12,1.0,0.0,M,0.0,M,,*68
$GPGSA,A,3,01,02,03,04,05,06,07,08,09,10,11,12,1.0,1.0,1.0*30
$GPRMC,204225.000,A,5555.557,N,03731.598,E,002.0,270.0,270318,000.0,W*74
$GPGGA,204226.000,5555.557,N,03731.597,E,1,12,1.0,0.0,M,0.0,M,,*64
$GPGSA,A,3,01,02,03,04,05,06,07,08,09,10,11,12,1.0,1.0,1.0*30
$GPRMC,204226.000,A,5555.557,N,03731.597,E,004.1,315.1,270318,000.0,W*7C
$GPGGA,204227.000,5555.558,N,03731.596,E,1,12,1.0,0.0,M,0.0,M,,*6B
$GPGSA,A,3,01,02,03,04,05,06,07,08,09,10,11,12,1.0,1.0,1.0*30
$GPRMC,204227.000,A,5555.558,N,03731.596,E,004.1,315.1,270318,000.0,W*73
$GPGGA,204228.000,5555.559,N,03731.595,E,1,12,1.0,0.0,M,0.0,M,,*66
$GPGSA,A,3,01,02,03,04,05,06,07,08,09,10,11,12,1.0,1.0,1.0*30
$GPRMC,204228.000,A,5555.559,N,03731.595,E,002.0,270.0,270318,000.0,W*7A
$GPGGA,204229.000,5555.559,N,03731.594,E,1,12,1.0,0.0,M,0.0,M,,*66
$GPGSA,A,3,01,02,03,04,05,06,07,08,09,10,11,12,1.0,1.0,1.0*30
$GPRMC,204229.000,A,5555.559,N,03731.594,E,004.1,315.1,270318,000.0,W*7E
$GPGGA,204230.000,5555.560,N,03731.593,E,1,12,1.0,0.0,M,0.0,M,,*63
$GPGSA,A,3,01,02,03,04,05,06,07,08,09,10,11,12,1.0,1.0,1.0*30
$GPRMC,204230.000,A,5555.560,N,03731.593,E,002.0,270.0,270318,000.0,W*7F
$GPGGA,204231.000,5555.560,N,03731.592,E,1,12,1.0,0.0,M,0.0,M,,*63
$GPGSA,A,3,01,02,03,04,05,06,07,08,09,10,11,12,1.0,1.0,1.0*30
$GPRMC,204231.000,A,5555.560,N,03731.592,E,004.1,315.2,270318,000.0,W*78
$GPGGA,204232.000,5555.561,N,03731.591,E,1,12,1.0,0.0,M,0.0,M,,*62
$GPGSA,A,3,01,02,03,04,05,06,07,08,09,10,11,12,1.0,1.0,1.0*30
$GPRMC,204232.000,A,5555.561,N,03731.591,E,002.0,270.0,270318,000.0,W*7E
$GPGGA,204233.000,5555.561,N,03731.590,E,1,12,1.0,0.0,M,0.0,M,,*62
$GPGSA,A,3,01,02,03,04,05,06,07,08,09,10,11,12,1.0,1.0,1.0*30
$GPRMC,204233.000,A,5555.561,N,03731.590,E,002.0,270.0,270318,000.0,W*7E
$GPGGA,204234.000,5555.561,N,03731.589,E,1,12,1.0,0.0,M,0.0,M,,*6D
$GPGSA,A,3,01,02,03,04,05,06,07,08,09,10,11,12,1.0,1.0,1.0*30
$GPRMC,204234.000,A,5555.561,N,03731.589,E,004.1,315.1,270318,000.0,W*75
$GPGGA,204235.000,5555.562,N,03731.588,E,1,12,1.0,0.0,M,0.0,M,,*6E
$GPGSA,A,3,01,02,03,04,05,06,07,08,09,10,11,12,1.0,1.0,1.0*30
$GPRMC,204235.000,A,5555.562,N,03731.588,E,004.0,270.0,270318,000.0,W*74
$GPGGA,204236.000,5555.562,N,03731.586,E,1,12,1.0,0.0,M,0.0,M,,*63
$GPGSA,A,3,01,02,03,04,05,06,07,08,09,10,11,12,1.0,1.0,1.0*30
$GPRMC,204236.000,A,5555.562,N,03731.586,E,004.1,315.2,270318,000.0,W*78
$GPGGA,204237.000,5555.563,N,03731.585,E,1,12,1.0,0.0,M,0.0,M,,*60
$GPGSA,A,3,01,02,03,04,05,06,07,08,09,10,11,12,1.0,1.0,1.0*30
$GPRMC,204237.000,A,5555.563,N,03731.585,E,002.0,270.0,270318,000.0,W*7C
$GPGGA,204238.000,5555.563,N,03731.584,E,1,12,1.0,0.0,M,0.0,M,,*6E
$GPGSA,A,3,01,02,03,04,05,06,07,08,09,10,11,12,1.0,1.0,1.0*30
$GPRMC,204238.000,A,5555.563,N,03731.584,E,004.1,315.1,270318,000.0,W*76
$GPGGA,204239.000,5555.564,N,03731.583,E,1,12,1.0,0.0,M,0.0,M,,*6F
$GPGSA,A,3,01,02,03,04,05,06,07,08,09,10,11,12,1.0,1.0,1.0*30
$GPRMC,204239.000,A,5555.564,N,03731.583,E,002.0,270.0,270318,000.0,W*73
$GPGGA,204240.000,5555.564,N,03731.582,E,1,12,1.0,0.0,M,0.0,M,,*60
$GPGSA,A,3,01,02,03,04,05,06,07,08,09,10,11,12,1.0,1.0,1.0*30
$GPRMC,204240.000,A,5555.564,N,03731.582,E,004.1,315.1,270318,000.0,W*78
$GPGGA,204241.000,5555.565,N,03731.581,E,1,12,1.0,0.0,M,0.0,M,,*63
$GPGSA,A,3,01,02,03,04,05,06,07,08,09,10,11,12,1.0,1.0,1.0*30
$GPRMC,204241.000,A,5555.565,N,03731.581,E,002.0,270.0,270318,000.0,W*7F
$GPGGA,204242.000,5555.565,N,03731.580,E,1,12,1.0,0.0,M,0.0,M,,*61
$GPGSA,A,3,01,02,03,04,05,06,07,08,09,10,11,12,1.0,1.0,1.0*30
$GPRMC,204242.000,A,5555.565,N,03731.580,E,005.4,296.7,270318,000.0,W*71
$GPGGA,204243.000,5555.566,N,03731.578,E,1,12,1.0,0.0,M,0.0,M,,*64
$GPGSA,A,3,01,02,03,04,05,06,07,08,09,10,11,12,1.0,1.0,1.0*30
$GPRMC,204243.000,A,5555.566,N,03731.578,E,002.0,270.0,270318,000.0,W*78
$GPGGA,204244.000,5555.566,N,03731.577,E,1,12,1.0,0.0,M,0.0,M,,*6C
$GPGSA,A,3,01,02,03,04,05,06,07,08,09,10,11,12,1.0,1.0,1.0*30
$GPRMC,204244.000,A,5555.566,N,03731.577,E,003.6,000.0,270318,000.0,W*72
$GPGGA,204245.000,5555.567,N,03731.577,E,1,12,1.0,0.0,M,0.0,M,,*6C
$GPGSA,A,3,01,02,03,04,05,06,07,08,09,10,11,12,1.0,1.0,1.0*30
$GPRMC,204245.000,A,5555.567,N,03731.577,E,004.1,315.1,270318,000.0,W*74
$GPGGA,204246.000,5555.568,N,03731.576,E,1,12,1.0,0.0,M,0.0,M,,*61
$GPGSA,A,3,01,02,03,04,05,06,07,08,09,10,11,12,1.0,1.0,1.0*30
$GPRMC,204246.000,A,5555.568,N,03731.576,E,002.0,270.0,270318,000.0,W*7D
$GPGGA,204247.000,5555.568,N,03731.575,E,1,12,1.0,0.0,M,0.0,M,,*63
$GPGSA,A,3,01,02,03,04,05,06,07,08,09,10,11,12,1.0,1.0,1.0*30
$GPRMC,204247.000,A,5555.568,N,03731.575,E,004.1,315.1,270318,000.0,W*7B
$GPGGA,204248.000,5555.569,N,03731.574,E,1,12,1.0,0.0,M,0.0,M,,*6C
$GPGSA,A,3,01,02,03,04,05,06,07,08,09,10,11,12,1.0,1.0,1.0*30
$GPRMC,204248.000,A,5555.569,N,03731.574,E,005.4,296.7,270318,000.0,W*7C
$GPGGA,204249.000,5555.570,N,03731.572,E,1,12,1.0,0.0,M,0.0,M,,*63
$GPGSA,A,3,01,02,03,04,05,06,07,08,09,10,11,12,1.0,1.0,1.0*30
$GPRMC,204249.000,A,5555.570,N,03731.572,E,002.0,270.0,270318,000.0,W*7F
$GPGGA,204250.000,5555.570,N,03731.571,E,1,12,1.0,0.0,M,0.0,M,,*68
$GPGSA,A,3,01,02,03,04,05,06,07,08,09,10,11,12,1.0,1.0,1.0*30
$GPRMC,204250.000,A,5555.570,N,03731.571,E,005.4,296.7,270318,000.0,W*78
$GPGGA,204251.000,5555.571,N,03731.569,E,1,12,1.0,0.0,M,0.0,M,,*61
$GPGSA,A,3,01,02,03,04,05,06,07,08,09,10,11,12,1.0,1.0,1.0*30
$GPRMC,204251.000,A,5555.571,N,03731.569,E,002.0,270.0,270318,000.0,W*7D
$GPGGA,204252.000,5555.571,N,03731.568,E,1,12,1.0,0.0,M,0.0,M,,*63
$GPGSA,A,3,01,02,03,04,05,06,07,08,09,10,11,12,1.0,1.0,1.0*30
$GPRMC,204252.000,A,5555.571,N,03731.568,E,002.0,270.0,270318,000.0,W*7F
$GPGGA,204253.000,5555.571,N,03731.567,E,1,12,1.0,0.0,M,0.0,M,,*6D
$GPGSA,A,3,01,02,03,04,05,06,07,08,09,10,11,12,1.0,1.0,1.0*30
$GPRMC,204253.000,A,5555.571,N,03731.567,E,005.4,296.7,270318,000.0,W*7D
$GPGGA,204254.000,5555.572,N,03731.565,E,1,12,1.0,0.0,M,0.0,M,,*6B
$GPGSA,A,3,01,02,03,04,05,06,07,08,09,10,11,12,1.0,1.0,1.0*30
$GPRMC,204254.000,A,5555.572,N,03731.565,E,004.1,315.2,270318,000.0,W*70
$GPGGA,204255.000,5555.573,N,03731.564,E,1,12,1.0,0.0,M,0.0,M,,*6A
$GPGSA,A,3,01,02,03,04,05,06,07,08,09,10,11,12,1.0,1.0,1.0*30
$GPRMC,204255.000,A,5555.573,N,03731.564,E,002.0,270.0,270318,000.0,W*76
$GPGGA,204256.000,5555.573,N,03731.563,E,1,12,1.0,0.0,M,0.0,M,,*6E
$GPGSA,A,3,01,02,03,04,05,06,07,08,09,10,11,12,1.0,1.0,1.0*30
$GPRMC,204256.000,A,5555.573,N,03731.563,E,004.1,315.1,270318,000.0,W*76
$GPGGA,204257.000,5555.574,N,03731.562,E,1,12,1.0,0.0,M,0.0,M,,*69
$GPGSA,A,3,01,02,03,04,05,06,07,08,09,10,11,12,1.0,1.0,1.0*30
$GPRMC,204257.000,A,5555.574,N,03731.562,E,004.1,315.2,270318,000.0,W*72
$GPGGA,204258.000,5555.575,N,03731.561,E,1,12,1.0,0.0,M,0.0,M,,*64
$GPGSA,A,3,01,02,03,04,05,06,07,08,09,10,11,12,1.0,1.0,1.0*30
$GPRMC,204258.000,A,5555.575,N,03731.561,E,004.0,270.0,270318,000.0,W*7E
$GPGGA,204259.000,5555.575,N,03731.559,E,1,12,1.0,0.0,M,0.0,M,,*6E
$GPGSA,A,3,01,02,03,04,05,06,07,08,09,10,11,12,1.0,1.0,1.0*30
$GPRMC,204259.000,A,5555.575,N,03731.559,E,004.1,315.2,270318,000.0,W*75
$GPGGA,204300.000,5555.576,N,03731.558,E,1,12,1.0,0.0,M,0.0,M,,*61
$GPGSA,A,3,01,02,03,04,05,06,07,08,09,10,11,12,1.0,1.0,1.0*30
$GPRMC,204300.000,A,5555.576,N,03731.558,E,004.0,270.0,270318,000.0,W*7B
$GPGGA,204301.000,5555.576,N,03731.556,E,1,12,1.0,0.0,M,0.0,M,,*6E
$GPGSA,A,3,01,02,03,04,05,06,07,08,09,10,11,12,1.0,1.0,1.0*30
$GPRMC,204301.000,A,5555.576,N,03731.556,E,004.1,315.1,270318,000.0,W*76
$GPGGA,204302.000,5555.577,N,03731.555,E,1,12,1.0,0.0,M,0.0,M,,*6F
$GPGSA,A,3,01,02,03,04,05,06,07,08,09,10,11,12,1.0,1.0,1.0*30
$GPRMC,204302.000,A,5555.577,N,03731.555,E,002.0,270.0,270318,000.0,W*73
$GPGGA,204303.000,5555.577,N,03731.554,E,1,12,1.0,0.0,M,0.0,M,,*6F
$GPGSA,A,3,01,02,03,04,05,06,07,08,09,10,11,12,1.0,1.0,1.0*30
$GPRMC,204303.000,A,5555.577,N,03731.554,E,005.4,296.7,270318,000.0,W*7F
$GPGGA,204304.000,5555.578,N,03731.552,E,1,12,1.0,0.0,M,0.0,M,,*61
$GPGSA,A,3,01,02,03,04,05,06,07,08,09,10,11,12,1.0,1.0,1.0*30
$GPRMC,204304.000,A,5555.578,N,03731.552,E,004.1,315.1,270318,000.0,W*79
$GPGGA,204305.000,5555.579,N,03731.551,E,1,12,1.0,0.0,M,0.0,M,,*62
$GPGSA,A,3,01,02,03,04,05,06,07,08,09,10,11,12,1.0,1.0,1.0*30
$GPRMC,204305.000,A,5555.579,N,03731.551,E,004.0,270.0,270318,000.0,W*78
$GPGGA,204306.000,5555.579,N,03731.549,E,1,12,1.0,0.0,M,0.0,M,,*68
$GPGSA,A,3,01,02,03,04,05,06,07,08,09,10,11,12,1.0,1.0,1.0*30
$GPRMC,204306.000,A,5555.579,N,03731.549,E,004.1,315.1,270318,000.0,W*70
$GPGGA,204307.000,5555.580,N,03731.548,E,1,12,1.0,0.0,M,0.0,M,,*6E
$GPGSA,A,3,01,02,03,04,05,06,07,08,09,10,11,12,1.0,1.0,1.0*30
$GPRMC,204307.000,A,5555.580,N,03731.548,E,004.0,270.0,270318,000.0,W*74
$GPGGA,204308.000,5555.580,N,03731.546,E,1,12,1.0,0.0,M,0.0,M,,*6F
$GPGSA,A,3,01,02,03,04,05,06,07,08,09,10,11,12,1.0,1.0,1.0*30
$GPRMC,204308.000,A,5555.580,N,03731.546,E,005.4,296.7,270318,000.0,W*7F
$GPGGA,204309.000,5555.581,N,03731.544,E,1,12,1.0,0.0,M,0.0,M,,*6D
$GPGSA,A,3,01,02,03,04,05,06,07,08,09,10,11,12,1.0,1.0,1.0*30
$GPRMC,204309.000,A,5555.581,N,03731.544,E,002.0,270.0,270318,000.0,W*71
$GPGGA,204310.000,5555.581,N,03731.543,E,1,12,1.0,0.0,M,0.0,M,,*62
$GPGSA,A,3,01,02,03,04,05,06,07,08,09,10,11,12,1.0,1.0,1.0*30
$GPRMC,204310.000,A,5555.581,N,03731.543,E,004.0,270.0,270318,000.0,W*78
$GPGGA,204311.000,5555.581,N,03731.541,E,1,12,1.0,0.0,M,0.0,M,,*61
$GPGSA,A,3,01,02,03,04,05,06,07,08,09,10,11,12,1.0,1.0,1.0*30
$GPRMC,204311.000,A,5555.581,N,03731.541,E,004.1,315.2,270318,000.0,W*7A
$GPGGA,204312.000,5555.582,N,03731.540,E,1,12,1.0,0.0,M,0.0,M,,*60
$GPGSA,A,3,01,02,03,04,05,06,07,08,09,10,11,12,1.0,1.0,1.0*30
$GPRMC,204312.000,A,5555.582,N,03731.540,E,002.0,270.0,270318,000.0,W*7C
$GPGGA,204313.000,5555.582,N,03731.539,E,1,12,1.0,0.0,M,0.0,M,,*6F
$GPGSA,A,3,01,02,03,04,05,06,07,08,09,10,11,12,1.0,1.0,1.0*30
$GPRMC,204313.000,A,5555.582,N,03731.539,E,004.0,270.0,270318,000.0,W*75
$GPGGA,204314.000,5555.582,N,03731.537,E,1,12,1.0,0.0,M,0.0,M,,*66
$GPGSA,A,3,01,02,03,04,05,06,07,08,09,10,11,12,1.0,1.0,1.0*30
$GPRMC,204314.000,A,5555.582,N,03731.537,E,000.0,000.0,270318,000.0,W*7D
$GPGGA,204315.000,5555.582,N,03731.537,E,1,12,1.0,0.0,M,0.0,M,,*67
$GPGSA,A,3,01,02,03,04,05,06,07,08,09,10,11,12,1.0,1.0,1.0*30
$GPRMC,204315.000,A,5555.582,N,03731.537,E,004.1,315.1,270318,000.0,W*7F
$GPGGA,204316.000,5555.583,N,03731.536,E,1,12,1.0,0.0,M,0.0,M,,*64
$GPGSA,A,3,01,02,03,04,05,06,07,08,09,10,11,12,1.0,1.0,1.0*30
$GPRMC,204316.000,A,5555.583,N,03731.536,E,002.0,270.0,270318,000.0,W*78
$GPGGA,204317.000,5555.583,N,03731.535,E,1,12,1.0,0.0,M,0.0,M,,*66
$GPGSA,A,3,01,02,03,04,05,06,07,08,09,10,11,12,1.0,1.0,1.0*30
$GPRMC,204317.000,A,5555.583,N,03731.535,E,002.0,270.0,270318,000.0,W*7A
$GPGGA,204318.000,5555.583,N,03731.534,E,1,12,1.0,0.0,M,0.0,M,,*68
$GPGSA,A,3,01,02,03,04,05,06,07,08,09,10,11,12,1.0,1.0,1.0*30
$GPRMC,204318.000,A,5555.583,N,03731.534,E,005.4,296.7,270318,000.0,W*78
$GPGGA,204319.000,5555.584,N,03731.532,E,1,12,1.0,0.0,M,0.0,M,,*68
$GPGSA,A,3,01,02,03,04,05,06,07,08,09,10,11,12,1.0,1.0,1.0*30
$GPRMC,204319.000,A,5555.584,N,03731.532,E,002.0,270.0,270318,000.0,W*74
$GPGGA,204320.000,5555.584,N,03731.531,E,1,12,1.0,0.0,M,0.0,M,,*61
$GPGSA,A,3,01,02,03,04,05,06,07,08,09,10,11,12,1.0,1.0,1.0*30
$GPRMC,204320.000,A,5555.584,N,03731.531,E,004.1,315.1,270318,000.0,W*79
$GPGGA,204321.000,5555.585,N,03731.530,E,1,12,1.0,0.0,M,0.0,M,,*60
$GPGSA,A,3,01,02,03,04,05,06,07,08,09,10,11,12,1.0,1.0,1.0*30
$GPRMC,204321.000,A,5555.585,N,03731.530,E,005.4,296.7,270318,000.0,W*70
$GPGGA,204322.000,5555.586,N,03731.528,E,1,12,1.0,0.0,M,0.0,M,,*69
$GPGSA,A,3,01,02,03,04,05,06,07,08,09,10,11,12,1.0,1.0,1.0*30
$GPRMC,204322.000,A,5555.586,N,03731.528,E,004.1,315.1,270318,000.0,W*71
$GPGGA,204323.000,5555.587,N,03731.527,E,1,12,1.0,0.0,M,0.0,M,,*66
$GPGSA,A,3,01,02,03,04,05,06,07,08,09,10,11,12,1.0,1.0,1.0*30
$GPRMC,204323.000,A,5555.587,N,03731.527,E,004.0,270.0,270318,000.0,W*7C
$GPGGA,204324.000,5555.587,N,03731.525,E,1,12,1.0,0.0,M,0.0,M,,*63
$GPGSA,A,3,01,02,03,04,05,06,07,08,09,10,11,12,1.0,1.0,1.0*30
$GPRMC,204324.000,A,5555.587,N,03731.525,E,005.4,296.7,270318,000.0,W*73
$GPGGA,204325.000,5555.588,N,03731.523,E,1,12,1.0,0.0,M,0.0,M,,*6B
$GPGSA,A,3,01,02,03,04,05,06,07,08,09,10,11,12,1.0,1.0,1.0*30
$GPRMC,204325.000,A,5555.588,N,03731.523,E,004.0,270.0,270318,000.0,W*71
$GPGGA,204326.000,5555.588,N,03731.521,E,1,12,1.0,0.0,M,0.0,M,,*6A
$GPGSA,A,3,01,02,03,04,05,06,07,08,09,10,11,12,1.0,1.0,1.0*30
$GPRMC,204326.000,A,5555.588,N,03731.521,E,004.1,315.1,270318,000.0,W*72
$GPGGA,204327.000,5555.589,N,03731.520,E,1,12,1.0,0.0,M,0.0,M,,*6B
$GPGSA,A,3,01,02,03,04,05,06,07,08,09,10,11,12,1.0,1.0,1.0*30
$GPRMC,204327.000,A,5555.589,N,03731.520,E,002.0,270.0,270318,000.0,W*77
$GPGGA,204328.000,5555.589,N,03731.519,E,1,12,1.0,0.0,M,0.0,M,,*6E
$GPGSA,A,3,01,02,03,04,05,06,07,08,09,10,11,12,1.0,1.0,1.0*30
$GPRMC,204328.000,A,5555.589,N,03731.519,E,004.1,315.1,270318,000.0,W*76
$GPGGA,204329.000,5555.590,N,03731.518,E,1,12,1.0,0.0,M,0.0,M,,*66
$GPGSA,A,3,01,02,03,04,05,06,07,08,09,10,11,12,1.0,1.0,1.0*30
$GPRMC,204329.000,A,5555.590,N,03731.518,E,004.0,270.0,270318,000.0,W*7C
$GPGGA,204330.000,5555.590,N,03731.516,E,1,12,1.0,0.0,M,0.0,M,,*60
$GPGSA,A,3,01,02,03,04,05,06,07,08,09,10,11,12,1.0,1.0,1.0*30
$GPRMC,204330.000,A,5555.590,N,03731.516,E,004.1,315.1,270318,000.0,W*78
$GPGGA,204331.000,5555.591,N,03731.515,E,1,12,1.0,0.0,M,0.0,M,,*63
$GPGSA,A,3,01,02,03,04,05,06,07,08,09,10,11,12,1.0,1.0,1.0*30
$GPRMC,204331.000,A,5555.591,N,03731.515,E,004.0,270.0,270318,000.0,W*79
$GPGGA,204332.000,5555.591,N,03731.513,E,1,12,1.0,0.0,M,0.0,M,,*66
$GPGSA,A,3,01,02,03,04,05,06,07,08,09,10,11,12,1.0,1.0,1.0*30
$GPRMC,204332.000,A,5555.591,N,03731.513,E,002.0,270.0,270318,000.0,W*7A
$GPGGA,204333.000,5555.591,N,03731.512,E,1,12,1.0,0.0,M,0.0,M,,*66
$GPGSA,A,3,01,02,03,04,05,06,07,08,09,10,11,12,1.0,1.0,1.0*30
$GPRMC,204333.000,A,5555.591,N,03731.512,E,004.1,315.1,270318,000.0,W*7E
$GPGGA,204334.000,5555.592,N,03731.511,E,1,12,1.0,0.0,M,0.0,M,,*61
$GPGSA,A,3,01,02,03,04,05,06,07,08,09,10,11,12,1.0,1.0,1.0*30
$GPRMC,204334.000,A,5555.592,N,03731.511,E,004.0,270.0,270318,000.0,W*7B
$GPGGA,204335.000,5555.592,N,03731.509,E,1,12,1.0,0.0,M,0.0,M,,*69
$GPGSA,A,3,01,02,03,04,05,06,07,08,09,10,11,12,1.0,1.0,1.0*30
$GPRMC,204335.000,A,5555.592,N,03731.509,E,004.1,315.1,270318,000.0,W*71
$GPGGA,204336.000,5555.593,N,03731.508,E,1,12,1.0,0.0,M,0.0,M,,*6A
$GPGSA,A,3,01,02,03,04,05,06,07,08,09,10,11,12,1.0,1.0,1.0*30
$GPRMC,204336.000,A,5555.593,N,03731.508,E,004.0,270.0,270318,000.0,W*70
$GPGGA,204337.000,5555.593,N,03731.506,E,1,12,1.0,0.0,M,0.0,M,,*65
$GPGSA,A,3,01,02,03,04,05,06,07,08,09,10,11,12,1.0,1.0,1.0*30
$GPRMC,204337.000,A,5555.593,N,03731.506,E,004.0,270.0,270318,000.0,W*7F
$GPGGA,204338.000,5555.593,N,03731.504,E,1,12,1.0,0.0,M,0.0,M,,*68
$GPGSA,A,3,01,02,03,04,05,06,07,08,09,10,11,12,1.0,1.0,1.0*30
$GPRMC,204338.000,A,5555.593,N,03731.504,E,005.4,296.7,270318,000.0,W*78
$GPGGA,204339.000,5555.594,N,03731.502,E,1,12,1.0,0.0,M,0.0,M,,*68
$GPGSA,A,3,01,02,03,04,05,06,07,08,09,10,11,12,1.0,1.0,1.0*30
$GPRMC,204339.000,A,5555.594,N,03731.502,E,004.0,270.0,270318,000.0,W*72
$GPGGA,204340.000,5555.594,N,03731.500,E,1,12,1.0,0.0,M,0.0,M,,*64
$GPGSA,A,3,01,02,03,04,05,06,07,08,09,10,11,12,1.0,1.0,1.0*30
$GPRMC,204340.000,A,5555.594,N,03731.500,E,004.1,315.1,270318,000.0,W*7C
$GPGGA,204341.000,5555.595,N,03731.499,E,1,12,1.0,0.0,M,0.0,M,,*65
$GPGSA,A,3,01,02,03,04,05,06,07,08,09,10,11,12,1.0,1.0,1.0*30
$GPRMC,204341.000,A,5555.595,N,03731.499,E,004.0,270.0,270318,000.0,W*7F
$GPGGA,204342.000,5555.595,N,03731.497,E,1,12,1.0,0.0,M,0.0,M,,*68
$GPGSA,A,3,01,02,03,04,05,06,07,08,09,10,11,12,1.0,1.0,1.0*30
$GPRMC,204342.000,A,5555.595,N,03731.497,E,002.0,270.0,270318,000.0,W*74
$GPGGA,204343.000,5555.595,N,03731.496,E,1,12,1.0,0.0,M,0.0,M,,*68
$GPGSA,A,3,01,02,03,04,05,06,07,08,09,10,11,12,1.0,1.0,1.0*30
$GPRMC,204343.000,A,5555.595,N,03731.496,E,004.0,270.0,270318,000.0,W*72
$GPGGA,204344.000,5555.595,N,03731.494,E,1,12,1.0,0.0,M,0.0,M,,*6D
$GPGSA,A,3,01,02,03,04,05,06,07,08,09,10,11,12,1.0,1.0,1.0*30
$GPRMC,204344.000,A,5555.595,N,03731.494,E,005.4,296.7,270318,000.0,W*7D
$GPGGA,204345.000,5555.596,N,03731.492,E,1,12,1.0,0.0,M,0.0,M,,*69
$GPGSA,A,3,01,02,03,04,05,06,07,08,09,10,11,12,1.0,1.0,1.0*30
$GPRMC,204345.000,A,5555.596,N,03731.492,E,004.0,270.0,270318,000.0,W*73
$GPGGA,204346.000,5555.596,N,03731.490,E,1,12,1.0,0.0,M,0.0,M,,*68
$GPGSA,A,3,01,02,03,04,05,06,07,08,09,10,11,12,1.0,1.0,1.0*30
$GPRMC,204346.000,A,5555.596,N,03731.490,E,002.0,270.0,270318,000.0,W*74
$GPGGA,204347.000,5555.596,N,03731.489,E,1,12,1.0,0.0,M,0.0,M,,*61
$GPGSA,A,3,01,02,03,04,05,06,07,08,09,10,11,12,1.0,1.0,1.0*30
$GPRMC,204347.000,A,5555.596,N,03731.489,E,004.0,270.0,270318,000.0,W*7B
$GPGGA,204348.000,5555.596,N,03731.487,E,1,12,1.0,0.0,M,0.0,M,,*60
$GPGSA,A,3,01,02,03,04,05,06,07,08,09,10,11,12,1.0,1.0,1.0*30
$GPRMC,204348.000,A,5555.596,N,03731.487,E,005.4,296.7,270318,000.0,W*70
$GPGGA,204349.000,5555.597,N,03731.485,E,1,12,1.0,0.0,M,0.0,M,,*62
$GPGSA,A,3,01,02,03,04,05,06,07,08,09,10,11,12,1.0,1.0,1.0*30
$GPRMC,204349.000,A,5555.597,N,03731.485,E,002.0,270.0,270318,000.0,W*7E
$GPGGA,204350.000,5555.597,N,03731.484,E,1,12,1.0,0.0,M,0.0,M,,*6B
$GPGSA,A,3,01,02,03,04,05,06,07,08,09,10,11,12,1.0,1.0,1.0*30
$GPRMC,204350.000,A,5555.597,N,03731.484,E,005.4,296.7,270318,000.0,W*7B
$GPGGA,204351.000,5555.598,N,03731.482,E,1,12,1.0,0.0,M,0.0,M,,*63
$GPGSA,A,3,01,02,03,04,05,06,07,08,09,10,11,12,1.0,1.0,1.0*30
$GPRMC,204351.000,A,5555.598,N,03731.482,E,004.0,270.0,270318,000.0,W*79
$GPGGA,204352.000,5555.598,N,03731.480,E,1,12,1.0,0.0,M,0.0,M,,*62
$GPGSA,A,3,01,02,03,04,05,06,07,08,09,10,11,12,1.0,1.0,1.0*30
$GPRMC,204352.000,A,5555.598,N,03731.480,E,002.0,270.0,270318,000.0,W*7E
$GPGGA,204353.000,5555.598,N,03731.479,E,1,12,1.0,0.0,M,0.0,M,,*65
$GPGSA,A,3,01,02,03,04,05,06,07,08,09,10,11,12,1.0,1.0,1.0*30
$GPRMC,204353.000,A,5555.598,N,03731.479,E,005.4,296.7,270318,000.0,W*75
$GPGGA,204354.000,5555.599,N,03731.477,E,1,12,1.0,0.0,M,0.0,M,,*6D
$GPGSA,A,3,01,02,03,04,05,06,07,08,09,10,11,12,1.0,1.0,1.0*30
$GPRMC,204354.000,A,5555.599,N,03731.477,E,005.4,296.7,270318,000.0,W*7D
$GPGGA,204355.000,5555.600,N,03731.475,E,1,12,1.0,0.0,M,0.0,M,,*6D
$GPGSA,A,3,01,02,03,04,05,06,07,08,09,10,11,12,1.0,1.0,1.0*30
$GPRMC,204355.000,A,5555.600,N,03731.475,E,005.4,296.7,270318,000.0,W*7D
$GPGGA,204356.000,5555.601,N,03731.473,E,1,12,1.0,0.0,M,0.0,M,,*69
$GPGSA,A,3,01,02,03,04,05,06,07,08,09,10,11,12,1.0,1.0,1.0*30
$GPRMC,204356.000,A,5555.601,N,03731.473,E,004.0,270.0,270318,000.0,W*73
$GPGGA,204357.000,5555.601,N,03731.471,E,1,12,1.0,0.0,M,0.0,M,,*6A
$GPGSA,A,3,01,02,03,04,05,06,07,08,09,10,11,12,1.0,1.0,1.0*30
$GPRMC,204357.000,A,5555.601,N,03731.471,E,005.4,296.7,270318,000.0,W*7A
$GPGGA,204358.000,5555.602,N,03731.469,E,1,12,1.0,0.0,M,0.0,M,,*6F
$GPGSA,A,3,01,02,03,04,05,06,07,08,09,10,11,12,1.0,1.0,1.0*30
$GPRMC,204358.000,A,5555.602,N,03731.469,E,004.1,315.2,270318,000.0,W*74
$GPGGA,204359.000,5555.603,N,03731.468,E,1,12,1.0,0.0,M,0.0,M,,*6E
$GPGSA,A,3,01,02,03,04,05,06,07,08,09,10,11,12,1.0,1.0,1.0*30
$GPRMC,204359.000,A,5555.603,N,03731.468,E,004.0,270.0,270318,000.0,W*74
$GPGGA,204400.000,5555.603,N,03731.466,E,1,12,1.0,0.0,M,0.0,M,,*6B
$GPGSA,A,3,01,02,03,04,05,06,07,08,09,10,11,12,1.0,1.0,1.0*30
$GPRMC,204400.000,A,5555.603,N,03731.466,E,005.4,296.7,270318,000.0,W*7B
$GPGGA,204401.000,5555.604,N,03731.464,E,1,12,1.0,0.0,M,0.0,M,,*6F
$GPGSA,A,3,01,02,03,04,05,06,07,08,09,10,11,12,1.0,1.0,1.0*30
$GPRMC,204401.000,A,5555.604,N,03731.464,E,004.1,315.1,270318,000.0,W*77
$GPGGA,204402.000,5555.605,N,03731.463,E,1,12,1.0,0.0,M,0.0,M,,*6A
$GPGSA,A,3,01,02,03,04,05,06,07,08,09,10,11,12,1.0,1.0,1.0*30
$GPRMC,204402.000,A,5555.605,N,03731.463,E,003.6,000.0,270318,000.0,W*74
$GPGGA,204403.000,5555.606,N,03731.463,E,1,12,1.0,0.0,M,0.0,M,,*68
$GPGSA,A,3,01,02,03,04,05,06,07,08,09,10,11,12,1.0,1.0,1.0*30
$GPRMC,204403.000,A,5555.606,N,03731.463,E,002.0,270.0,270318,000.0,W*74
$GPGGA,204404.000,5555.606,N,03731.462,E,1,12,1.0,0.0,M,0.0,M,,*6E
$GPGSA,A,3,01,02,03,04,05,06,07,08,09,10,11,12,1.0,1.0,1.0*30
$GPRMC,204404.000,A,5555.606,N,03731.462,E,003.6,000.0,270318,000.0,W*70
$GPGGA,204405.000,5555.607,N,03731.462,E,1,12,1.0,0.0,M,0.0,M,,*6E
$GPGSA,A,3,01,02,03,04,05,06,07,08,09,10,11,12,1.0,1.0,1.0*30
$GPRMC,204405.000,A,5555.607,N,03731.462,E,004.1,315.1,270318,000.0,W*76
$GPGGA,204406.000,5555.608,N,03731.461,E,1,12,1.0,0.0,M,0.0,M,,*61
$GPGSA,A,3,01,02,03,04,05,06,07,08,09,10,11,12,1.0,1.0,1.0*30
$GPRMC,204406.000,A,5555.608,N,03731.461,E,003.6,000.0,270318,000.0,W*7F
$GPGGA,204407.000,5555.609,N,03731.461,E,1,12,1.0,0.0,M,0.0,M,,*61
$GPGSA,A,3,01,02,03,04,05,06,07,08,09,10,11,12,1.0,1.0,1.0*30
$GPRMC,204407.000,A,5555.609,N,03731.461,E,000.0,000.0,270318,000.0,W*7A
$GPGGA,204408.000,5555.609,N,03731.461,E,1,12,1.0,0.0,M,0.0,M,,*6E
$GPGSA,A,3,01,02,03,04,05,06,07,08,09,10,11,12,1.0,1.0,1.0*30
$GPRMC,204408.000,A,5555.609,N,03731.461,E,003.6,000.0,270318,000.0,W*70
$GPGGA,204409.000,5555.610,N,03731.461,E,1,12,1.0,0.0,M,0.0,M,,*67
$GPGSA,A,3,01,02,03,04,05,06,07,08,09,10,11,12,1.0,1.0,1.0*30
$GPRMC,204409.000,A,5555.610,N,03731.461,E,003.6,000.0,270318,000.0,W*79
$GPGGA,204410.000,5555.611,N,03731.461,E,1,12,1.0,0.0,M,0.0,M,,*6E
$GPGSA,A,3,01,02,03,04,05,06,07,08,09,10,11,12,1.0,1.0,1.0*30
$GPRMC,204410.000,A,5555.611,N,03731.461,E,004.1,044.9,270318,000.0,W*79
$GPGGA,204411.000,5555.612,N,03731.462,E,1,12,1.0,0.0,M,0.0,M,,*6F
$GPGSA,A,3,01,02,03,04,05,06,07,08,09,10,11,12,1.0,1.0,1.0*30
$GPRMC,204411.000,A,5555.612,N,03731.462,E,003.6,000.0,270318,000.0,W*71
$GPGGA,204412.000,5555.613,N,03731.462,E,1,12,1.0,0.0,M,0.0,M,,*6D
$GPGSA,A,3,01,02,03,04,05,06,07,08,09,10,11,12,1.0,1.0,1.0*30
$GPRMC,204412.000,A,5555.613,N,03731.462,E,000.0,000.0,270318,000.0,W*76
$GPGGA,204413.000,5555.613,N,03731.462,E,1,12,1.0,0.0,M,0.0,M,,*6C
$GPGSA,A,3,01,02,03,04,05,06,07,08,09,10,11,12,1.0,1.0,1.0*30
$GPRMC,204413.000,A,5555.613,N,03731.462,E,003.6,000.0,270318,000.0,W*72
$GPGGA,204414.000,5555.614,N,03731.462,E,1,12,1.0,0.0,M,0.0,M,,*6C
$GPGSA,A,3,01,02,03,04,05,06,07,08,09,10,11,12,1.0,1.0,1.0*30
$GPRMC,204414.000,A,5555.614,N,03731.462,E,003.6,000.0,270318,000.0,W*72
$GPGGA,204415.000,5555.615,N,03731.462,E,1,12,1.0,0.0,M,0.0,M,,*6C
$GPGSA,A,3,01,02,03,04,05,06,07,08,09,10,11,12,1.0,1.0,1.0*30
$GPRMC,204415.000,A,5555.615,N,03731.462,E,002.0,270.0,270318,000.0,W*70
$GPGGA,204416.000,5555.615,N,03731.461,E,1,12,1.0,0.0,M,0.0,M,,*6C
$GPGSA,A,3,01,02,03,04,05,06,07,08,09,10,11,12,1.0,1.0,1.0*30
$GPRMC,204416.000,A,5555.615,N,03731.461,E,003.6,000.0,270318,000.0,W*72
$GPGGA,204417.000,5555.616,N,03731.461,E,1,12,1.0,0.0,M,0.0,M,,*6E
$GPGSA,A,3,01,02,03,04,05,06,07,08,09,10,11,12,1.0,1.0,1.0*30
$GPRMC,204417.000,A,5555.616,N,03731.461,E,002.0,270.0,270318,000.0,W*72
$GPGGA,204418.000,5555.616,N,03731.460,E,1,12,1.0,0.0,M,0.0,M,,*60
$GPGSA,A,3,01,02,03,04,05,06,07,08,09,10,11,12,1.0,1.0,1.0*30
$GPRMC,204418.000,A,5555.616,N,03731.460,E,004.0,270.0,270318,000.0,W*7A
$GPGGA,204419.000,5555.616,N,03731.458,E,1,12,1.0,0.0,M,0.0,M,,*6A
$GPGSA,A,3,01,02,03,04,05,06,07,08,09,10,11,12,1.0,1.0,1.0*30
$GPRMC,204419.000,A,5555.616,N,03731.458,E,002.0,270.0,270318,000.0,W*76
$GPGGA,204420.000,5555.616,N,03731.457,E,1,12,1.0,0.0,M,0.0,M,,*6F
$GPGSA,A,3,01,02,03,04,05,06,07,08,09,10,11,12,1.0,1.0,1.0*30
$GPRMC,204420.000,A,5555.616,N,03731.457,E,002.0,270.0,270318,000.0,W*73
$GPGGA,204421.000,5555.616,N,03731.456,E,1,12,1.0,0.0,M,0.0,M,,*6F
$GPGSA,A,3,01,02,03,04,05,06,07,08,09,10,11,12,1.0,1.0,1.0*30
$GPRMC,204421.000,A,5555.616,N,03731.456,E,004.1,315.1,270318,000.0,W*77
$GPGGA,204422.000,5555.617,N,03731.455,E,1,12,1.0,0.0,M,0.0,M,,*6E
$GPGSA,A,3,01,02,03,04,05,06,07,08,09,10,11,12,1.0,1.0,1.0*30
$GPRMC,204422.000,A,5555.617,N,03731.455,E,000.0,000.0,270318,000.0,W*75
$GPGGA,204423.000,5555.617,N,03731.455,E,1,12,1.0,0.0,M,0.0,M,,*6F
$GPGSA,A,3,01,02,03,04,05,06,07,08,09,10,11,12,1.0,1.0,1.0*30
$GPRMC,204423.000,A,5555.617,N,03731.455,E,002.0,270.0,270318,000.0,W*73
$GPGGA,204424.000,5555.617,N,03731.454,E,1,12,1.0,0.0,M,0.0,M,,*69
$GPGSA,A,3,01,02,03,04,05,06,07,08,09,10,11,12,1.0,1.0,1.0*30
$GPRMC,204424.000,A,5555.617,N,03731.454,E,004.1,315.2,270318,000.0,W*72
$GPGGA,204425.000,5555.618,N,03731.453,E,1,12,1.0,0.0,M,0.0,M,,*60
$GPGSA,A,3,01,02,03,04,05,06,07,08,09,10,11,12,1.0,1.0,1.0*30
$GPRMC,204425.000,A,5555.618,N,03731.453,E,000.0,000.0,270318,000.0,W*7B
$GPGGA,204426.000,5555.618,N,03731.453,E,1,12,1.0,0.0,M,0.0,M,,*63
$GPGSA,A,3,01,02,03,04,05,06,07,08,09,10,11,12,1.0,1.0,1.0*30
$GPRMC,204426.000,A,5555.618,N,03731.453,E,004.1,315.1,270318,000.0,W*7B
$GPGGA,204427.000,5555.619,N,03731.452,E,1,12,1.0,0.0,M,0.0,M,,*62
$GPGSA,A,3,01,02,03,04,05,06,07,08,09,10,11,12,1.0,1.0,1.0*30
$GPRMC,204427.000,A,5555.619,N,03731.452,E,003.6,000.0,270318,000.0,W*7C
$GPGGA,204428.000,5555.620,N,03731.452,E,1,12,1.0,0.0,M,0.0,M,,*67
$GPGSA,A,3,01,02,03,04,05,06,07,08,09,10,11,12,1.0,1.0,1.0*30
$GPRMC,204428.000,A,5555.620,N,03731.452,E,004.1,315.1,270318,000.0,W*7F
$GPGGA,204429.000,5555.621,N,03731.451,E,1,12,1.0,0.0,M,0.0,M,,*64
$GPGSA,A,3,01,02,03,04,05,06,07,08,09,10,11,12,1.0,1.0,1.0*30
$GPRMC,204429.000,A,5555.621,N,03731.451,E,003.6,000.0,270318,000.0,W*7A
$GPGGA,204430.000,5555.622,N,03731.451,E,1,12,1.0,0.0,M,0.0,M,,*6F
$GPGSA,A,3,01,02,03,04,05,06,07,08,09,10,11,12,1.0,1.0,1.0*30
$GPRMC,204430.000,A,5555.622,N,03731.451,E,003.6,000.0,270318,000.0,W*71
$GPGGA,204431.000,5555.623,N,03731.451,E,1,12,1.0,0.0,M,0.0,M,,*6F
$GPGSA,A,3,01,02,03,04,05,06,07,08,09,10,11,12,1.0,1.0,1.0*30
$GPRMC,204431.000,A,5555.623,N,03731.451,E,004.1,315.2,270318,000.0,W*74
$GPGGA,204432.000,5555.624,N,03731.450,E,1,12,1.0,0.0,M,0.0,M,,*6A
$GPGSA,A,3,01,02,03,04,05,06,07,08,09,10,11,12,1.0,1.0,1.0*30
$GPRMC,204432.000,A,5555.624,N,03731.450,E,000.0,000.0,270318,000.0,W*71
$GPGGA,204433.000,5555.624,N,03731.450,E,1,12,1.0,0.0,M,0.0,M,,*6B
$GPGSA,A,3,01,02,03,04,05,06,07,08,09,10,11,12,1.0,1.0,1.0*30
$GPRMC,204433.000,A,5555.624,N,03731.450,E,004.1,315.1,270318,000.0,W*73
$GPGGA,204434.000,5555.625,N,03731.449,E,1,12,1.0,0.0,M,0.0,M,,*65
$GPGSA,A,3,01,02,03,04,05,06,07,08,09,10,11,12,1.0,1.0,1.0*30
$GPRMC,204434.000,A,5555.625,N,03731.449,E,004.1,315.1,270318,000.0,W*7D
$GPGGA,204435.000,5555.626,N,03731.448,E,1,12,1.0,0.0,M,0.0,M,,*66
$GPGSA,A,3,01,02,03,04,05,06,07,08,09,10,11,12,1.0,1.0,1.0*30
$GPRMC,204435.000,A,5555.626,N,03731.448,E,003.6,000.0,270318,000.0,W*78
$GPGGA,204436.000,5555.627,N,03731.448,E,1,12,1.0,0.0,M,0.0,M,,*64
$GPGSA,A,3,01,02,03,04,05,06,07,08,09,10,11,12,1.0,1.0,1.0*30
$GPRMC,204436.000,A,5555.627,N,03731.448,E,005.4,296.7,270318,000.0,W*74
$GPGGA,204437.000,5555.628,N,03731.446,E,1,12,1.0,0.0,M,0.0,M,,*64
$GPGSA,A,3,01,02,03,04,05,06,07,08,09,10,11,12,1.0,1.0,1.0*30
$GPRMC,204437.000,A,5555.628,N,03731.446,E,007.5,333.5,270318,000.0,W*7B
$GPGGA,204438.000,5555.630,N,03731.445,E,1,12,1.0,0.0,M,0.0,M,,*61
$GPGSA,A,3,01,02,03,04,05,06,07,08,09,10,11,12,1.0,1.0,1.0*30
$GPRMC,204438.000,A,5555.630,N,03731.445,E,003.6,000.0,270318,000.0,W*7F
$GPGGA,204439.000,5555.631,N,03731.445,E,1,12,1.0,0.0,M,0.0,M,,*61
$GPGSA,A,3,01,02,03,04,05,06,07,08,09,10,11,12,1.0,1.0,1.0*30
$GPRMC,204439.000,A,5555.631,N,03731.445,E,004.1,315.2,270318,000.0,W*7A
$GPGGA,204440.000,5555.632,N,03731.444,E,1,12,1.0,0.0,M,0.0,M,,*6D
$GPGSA,A,3,01,02,03,04,05,06,07,08,09,10,11,12,1.0,1.0,1.0*30
$GPRMC,204440.000,A,5555.632,N,03731.444,E,007.5,333.5,270318,000.0,W*72
$GPGGA,204441.000,5555.634,N,03731.443,E,1,12,1.0,0.0,M,0.0,M,,*6D
$GPGSA,A,3,01,02,03,04,05,06,07,08,09,10,11,12,1.0,1.0,1.0*30
$GPRMC,204441.000,A,5555.634,N,03731.443,E,002.0,270.0,270318,000.0,W*71
$GPGGA,204442.000,5555.634,N,03731.442,E,1,12,1.0,0.0,M,0.0,M,,*6F
$GPGSA,A,3,01,02,03,04,05,06,07,08,09,10,11,12,1.0,1.0,1.0*30
$GPRMC,204442.000,A,5555.634,N,03731.442,E,004.1,315.2,270318,000.0,W*74
$GPGGA,204443.000,5555.635,N,03731.441,E,1,12,1.0,0.0,M,0.0,M,,*6C
$GPGSA,A,3,01,02,03,04,05,06,07,08,09,10,11,12,1.0,1.0,1.0*30
$GPRMC,204443.000,A,5555.635,N,03731.441,E,004.1,315.1,270318,000.0,W*74
$GPGGA,204444.000,5555.636,N,03731.440,E,1,12,1.0,0.0,M,0.0,M,,*69
$GPGSA,A,3,01,02,03,04,05,06,07,08,09,10,11,12,1.0,1.0,1.0*30
$GPRMC,204444.000,A,5555.636,N,03731.440,E,003.6,000.0,270318,000.0,W*77
$GPGGA,204445.000,5555.637,N,03731.440,E,1,12,1.0,0.0,M,0.0,M,,*69
$GPGSA,A,3,01,02,03,04,05,06,07,08,09,10,11,12,1.0,1.0,1.0*30
$GPRMC,204445.000,A,5555.637,N,03731.440,E,004.1,315.1,270318,000.0,W*71
$GPGGA,204446.000,5555.638,N,03731.439,E,1,12,1.0,0.0,M,0.0,M,,*6B
$GPGSA,A,3,01,02,03,04,05,06,07,08,09,10,11,12,1.0,1.0,1.0*30
$GPRMC,204446.000,A,5555.638,N,03731.439,E,007.5,333.6,270318,000.0,W*77
$GPGGA,204447.000,5555.640,N,03731.438,E,1,12,1.0,0.0,M,0.0,M,,*64
$GPGSA,A,3,01,02,03,04,05,06,07,08,09,10,11,12,1.0,1.0,1.0*30
$GPRMC,204447.000,A,5555.640,N,03731.438,E,000.0,000.0,270318,000.0,W*7F
$GPGGA,204448.000,5555.640,N,03731.438,E,1,12,1.0,0.0,M,0.0,M,,*6B
$GPGSA,A,3,01,02,03,04,05,06,07,08,09,10,11,12,1.0,1.0,1.0*30
$GPRMC,204448.000,A,5555.640,N,03731.438,E,000.0,000.0,270318,000.0,W*70
$GPGGA,204449.000,5555.640,N,03731.438,E,1,12,1.0,0.0,M,0.0,M,,*6A
$GPGSA,A,3,01,02,03,04,05,06,07,08,09,10,11,12,1.0,1.0,1.0*30
$GPRMC,204449.000,A,5555.640,N,03731.438,E,008.3,315.1,270318,000.0,W*7C
$GPGGA,204450.000,5555.642,N,03731.436,E,1,12,1.0,0.0,M,0.0,M,,*6E
$GPGSA,A,3,01,02,03,04,05,06,07,08,09,10,11,12,1.0,1.0,1.0*30
$GPRMC,204450.000,A,5555.642,N,03731.436,E,003.6,000.0,270318,000.0,W*70
$GPGGA,204451.000,5555.643,N,03731.436,E,1,12,1.0,0.0,M,0.0,M,,*6E
$GPGSA,A,3,01,02,03,04,05,06,07,08,09,10,11,12,1.0,1.0,1.0*30
$GPRMC,204451.000,A,5555.643,N,03731.436,E,000.0,000.0,270318,000.0,W*75
$GPGGA,204452.000,5555.643,N,03731.436,E,1,12,1.0,0.0,M,0.0,M,,*6D
$GPGSA,A,3,01,02,03,04,05,06,07,08,09,10,11,12,1.0,1.0,1.0*30
$GPRMC,204452.000,A,5555.643,N,03731.436,E,003.6,000.0,270318,000.0,W*73
$GPGGA,204453.000,5555.644,N,03731.436,E,1,12,1.0,0.0,M,0.0,M,,*6B
$GPGSA,A,3,01,02,03,04,05,06,07,08,09,10,11,12,1.0,1.0,1.0*30
$GPRMC,204453.000,A,5555.644,N,03731.436,E,003.6,000.0,270318,000.0,W*75
$GPGGA,204454.000,5555.645,N,03731.436,E,1,12,1.0,0.0,M,0.0,M,,*6D
$GPGSA,A,3,01,02,03,04,05,06,07,08,09,10,11,12,1.0,1.0,1.0*30
$GPRMC,204454.000,A,5555.645,N,03731.436,E,004.1,315.1,270318,000.0,W*75
$GPGGA,204455.000,5555.646,N,03731.435,E,1,12,1.0,0.0,M,0.0,M,,*6C
$GPGSA,A,3,01,02,03,04,05,06,07,08,09,10,11,12,1.0,1.0,1.0*30
$GPRMC,204455.000,A,5555.646,N,03731.435,E,004.1,315.1,270318,000.0,W*74
$GPGGA,204456.000,5555.647,N,03731.434,E,1,12,1.0,0.0,M,0.0,M,,*6F
$GPGSA,A,3,01,02,03,04,05,06,07,08,09,10,11,12,1.0,1.0,1.0*30
$GPRMC,204456.000,A,5555.647,N,03731.434,E,007.0,108.5,270318,000.0,W*7F
$GPGGA,204457.000,5555.646,N,03731.437,E,1,12,1.0,0.0,M,0.0,M,,*6C
$GPGSA,A,3,01,02,03,04,05,06,07,08,09,10,11,12,1.0,1.0,1.0*30
$GPRMC,204457.000,A,5555.646,N,03731.437,E,007.2,000.0,270318,000.0,W*72
$GPGGA,204458.000,5555.648,N,03731.437,E,1,12,1.0,0.0,M,0.0,M,,*6D
$GPGSA,A,3,01,02,03,04,05,06,07,08,09,10,11,12,1.0,1.0,1.0*30
$GPRMC,204458.000,A,5555.648,N,03731.437,E,003.6,000.0,270318,000.0,W*73
$GPGGA,204459.000,5555.649,N,03731.437,E,1,12,1.0,0.0,M,0.0,M,,*6D
$GPGSA,A,3,01,02,03,04,05,06,07,08,09,10,11,12,1.0,1.0,1.0*30
$GPRMC,204459.000,A,5555.649,N,03731.437,E,004.1,044.9,270318,000.0,W*7A
$GPGGA,204500.000,5555.650,N,03731.438,E,1,12,1.0,0.0,M,0.0,M,,*67
$GPGSA,A,3,01,02,03,04,05,06,07,08,09,10,11,12,1.0,1.0,1.0*30
$GPRMC,204500.000,A,5555.650,N,03731.438,E,003.6,000.0,270318,000.0,W*79
$GPGGA,204501.000,5555.651,N,03731.438,E,1,12,1.0,0.0,M,0.0,M,,*67
$GPGSA,A,3,01,02,03,04,05,06,07,08,09,10,11,12,1.0,1.0,1.0*30
$GPRMC,204501.000,A,5555.651,N,03731.438,E,004.1,044.9,270318,000.0,W*70
$GPGGA,204502.000,5555.652,N,03731.439,E,1,12,1.0,0.0,M,0.0,M,,*66
$GPGSA,A,3,01,02,03,04,05,06,07,08,09,10,11,12,1.0,1.0,1.0*30
$GPRMC,204502.000,A,5555.652,N,03731.439,E,003.6,000.0,270318,000.0,W*78
$GPGGA,204503.000,5555.653,N,03731.439,E,1,12,1.0,0.0,M,0.0,M,,*66
$GPGSA,A,3,01,02,03,04,05,06,07,08,09,10,11,12,1.0,1.0,1.0*30
$GPRMC,204503.000,A,5555.653,N,03731.439,E,004.1,044.9,270318,000.0,W*71
$GPGGA,204504.000,5555.654,N,03731.440,E,1,12,1.0,0.0,M,0.0,M,,*68
$GPGSA,A,3,01,02,03,04,05,06,07,08,09,10,11,12,1.0,1.0,1.0*30
$GPRMC,204504.000,A,5555.654,N,03731.440,E,000.0,000.0,270318,000.0,W*73
$GPGGA,204505.000,5555.654,N,03731.440,E,1,12,1.0,0.0,M,0.0,M,,*69
$GPGSA,A,3,01,02,03,04,05,06,07,08,09,10,11,12,1.0,1.0,1.0*30
$GPRMC,204505.000,A,5555.654,N,03731.440,E,003.6,000.0,270318,000.0,W*77
$GPGGA,204506.000,5555.655,N,03731.440,E,1,12,1.0,0.0,M,0.0,M,,*6B
$GPGSA,A,3,01,02,03,04,05,06,07,08,09,10,11,12,1.0,1.0,1.0*30
$GPRMC,204506.000,A,5555.655,N,03731.440,E,003.6,000.0,270318,000.0,W*75
$GPGGA,204507.000,5555.656,N,03731.440,E,1,12,1.0,0.0,M,0.0,M,,*69
$GPGSA,A,3,01,02,03,04,05,06,07,08,09,10,11,12,1.0,1.0,1.0*30
$GPRMC,204507.000,A,5555.656,N,03731.440,E,003.6,000.0,270318,000.0,W*77
$GPGGA,204508.000,5555.657,N,03731.440,E,1,12,1.0,0.0,M,0.0,M,,*67
$GPGSA,A,3,01,02,03,04,05,06,07,08,09,10,11,12,1.0,1.0,1.0*30
$GPRMC,204508.000,A,5555.657,N,03731.440,E,003.6,000.0,270318,000.0,W*79
$GPGGA,204509.000,5555.658,N,03731.440,E,1,12,1.0,0.0,M,0.0,M,,*69
$GPGSA,A,3,01,02,03,04,05,06,07,08,09,10,11,12,1.0,1.0,1.0*30
$GPRMC,204509.000,A,5555.658,N,03731.440,E,004.1,315.1,270318,000.0,W*71
$GPGGA,204510.000,5555.659,N,03731.439,E,1,12,1.0,0.0,M,0.0,M,,*6E
$GPGSA,A,3,01,02,03,04,05,06,07,08,09,10,11,12,1.0,1.0,1.0*30
$GPRMC,204510.000,A,5555.659,N,03731.439,E,003.6,000.0,270318,000.0,W*70
$GPGGA,204511.000,5555.660,N,03731.439,E,1,12,1.0,0.0,M,0.0,M,,*65
$GPGSA,A,3,01,02,03,04,05,06,07,08,09,10,11,12,1.0,1.0,1.0*30
$GPRMC,204511.000,A,5555.660,N,03731.439,E,000.0,000.0,270318,000.0,W*7E
$GPGGA,204512.000,5555.660,N,03731.439,E,1,12,1.0,0.0,M,0.0,M,,*66
$GPGSA,A,3,01,02,03,04,05,06,07,08,09,10,11,12,1.0,1.0,1.0*30
$GPRMC,204512.000,A,5555.660,N,03731.439,E,003.6,000.0,270318,000.0,W*78
$GPGGA,204513.000,5555.661,N,03731.439,E,1,12,1.0,0.0,M,0.0,M,,*66
$GPGSA,A,3,01,02,03,04,05,06,07,08,09,10,11,12,1.0,1.0,1.0*30
$GPRMC,204513.000,A,5555.661,N,03731.439,E,003.6,000.0,270318,000.0,W*78
